[
  {
    "_id": "521abaa7aba9f11536b3a2ce",
    "groupId": "3250422",
    "memberId": 94707,
    "name": "Oswald",
    "joined": 1328989512000,
    "link": "http://www.meetup.com/members/94707",
    "lon": -122.42,
    "lat": 37.78,
    "state": "CA",
    "city": "San Francisco",
    "avatar": "http://photos3.meetupstatic.com/photos/member/7/0/b/0/thumb_1528848.jpeg",
    "rsvpId": "920846802",
    "eventId": "134391752",
    "response": "no",
    "rsvpAt": 1376349989000,
    "guests": 0
  },
  {
    "_id": "521abaa7aba9f11536b3a2cf",
    "groupId": "3250422",
    "memberId": 979427,
    "name": "dc",
    "joined": 1372309175000,
    "link": "http://www.meetup.com/members/979427",
    "lon": -122.4,
    "lat": 37.79,
    "state": "CA",
    "city": "San Francisco",
    "avatar": "http://photos4.meetupstatic.com/photos/member/c/7/a/8/thumb_128091112.jpeg",
    "rsvpId": "932679102",
    "eventId": "134391752",
    "response": "waitlist",
    "rsvpAt": 1377117795000,
    "guests": 0
  },
  {
    "_id": "521abaa7aba9f11536b3a2d0",
    "groupId": "3250422",
    "memberId": 1251136,
    "name": "Tim Jones",
    "joined": 1376637505000,
    "link": "http://www.meetup.com/members/1251136",
    "lon": -122.42,
    "lat": 37.75,
    "state": "CA",
    "city": "San Francisco",
    "avatar": "http://photos1.meetupstatic.com/photos/member/4/b/6/6/thumb_39619302.jpeg",
    "rsvpId": "925399592",
    "eventId": "134391752",
    "response": "yes",
    "rsvpAt": 1376637577000,
    "guests": 0
  },
  {
    "_id": "521abaa7aba9f11536b3a2d1",
    "groupId": "3250422",
    "memberId": 2278143,
    "name": "Michael Everitt",
    "joined": 1329758746000,
    "link": "http://www.meetup.com/members/2278143",
    "lon": -122.11,
    "lat": 37.9,
    "state": "CA",
    "city": "Lafayette",
    "avatar": "http://photos4.meetupstatic.com/photos/member/8/7/0/9/thumb_2914569.jpeg",
    "rsvpId": "920994332",
    "eventId": "134391752",
    "response": "no",
    "rsvpAt": 1376356887000,
    "guests": 0
  },
  {
    "_id": "521abaa7aba9f11536b3a2d2",
    "groupId": "3250422",
    "memberId": 2501503,
    "name": "Gene Golovchinsky",
    "joined": 1332458861000,
    "link": "http://www.meetup.com/members/2501503",
    "lon": -122.19,
    "lat": 37.44,
    "state": "CA",
    "city": "Menlo Park",
    "avatar": "http://photos3.meetupstatic.com/photos/member/1/1/d/3/thumb_664563.jpeg",
    "rsvpId": "920847122",
    "eventId": "134391752",
    "response": "no",
    "rsvpAt": 1376350003000,
    "guests": 0
  },
  {
    "_id": "521abaa7aba9f11536b3a2d3",
    "groupId": "3250422",
    "memberId": 3023963,
    "name": "Alfred Lui",
    "joined": 1363567021000,
    "link": "http://www.meetup.com/members/3023963",
    "lon": -122.41,
    "lat": 37.79,
    "state": "CA",
    "city": "San Francisco",
    "avatar": "http://photos1.meetupstatic.com/photos/member/2/4/2/4/thumb_93369252.jpeg",
    "rsvpId": "921541172",
    "eventId": "134391752",
    "response": "no",
    "rsvpAt": 1376402659000,
    "guests": 0
  },
  {
    "_id": "521abaa7aba9f11536b3a2d4",
    "groupId": "3250422",
    "memberId": 3031510,
    "name": "poojap9",
    "joined": 1370574796000,
    "link": "http://www.meetup.com/members/3031510",
    "lon": -121.88,
    "lat": 37.35,
    "state": "CA",
    "city": "San Jose",
    "avatar": "http://photos4.meetupstatic.com/photos/member/d/6/9/c/thumb_894940.jpeg",
    "rsvpId": "921064462",
    "eventId": "134391752",
    "response": "yes",
    "rsvpAt": 1376360188000,
    "guests": 0
  },
  {
    "_id": "521abaa7aba9f11536b3a2d5",
    "groupId": "3250422",
    "memberId": 3387606,
    "name": "Luca",
    "joined": 1376354189000,
    "link": "http://www.meetup.com/members/3387606",
    "lon": -122.43,
    "lat": 37.63,
    "state": "CA",
    "city": "San Bruno",
    "avatar": "http://photos2.meetupstatic.com/photos/member/2/e/7/e/thumb_136031902.jpeg",
    "rsvpId": "920938322",
    "eventId": "134391752",
    "response": "yes",
    "rsvpAt": 1376354228000,
    "guests": 0
  },
  {
    "_id": "521abaa7aba9f11536b3a2d6",
    "groupId": "3250422",
    "memberId": 3784966,
    "name": "Chris McGill",
    "joined": 1376350347000,
    "link": "http://www.meetup.com/members/3784966",
    "lon": -77.1,
    "lat": 38.98,
    "state": "MD",
    "city": "Bethesda",
    "avatar": "http://photos3.meetupstatic.com/photos/member/d/7/c/thumb_139383452.jpeg",
    "rsvpId": "920854212",
    "eventId": "134391752",
    "response": "yes",
    "rsvpAt": 1376350348000,
    "guests": 0
  },
  {
    "_id": "521abaa7aba9f11536b3a2d7",
    "groupId": "3250422",
    "memberId": 4016621,
    "name": "Grant Kinney",
    "joined": 1342065475000,
    "link": "http://www.meetup.com/members/4016621",
    "lon": -122.24,
    "lat": 37.82,
    "state": "CA",
    "city": "Oakland",
    "avatar": "http://photos4.meetupstatic.com/photos/member/3/7/c/a/thumb_39314282.jpeg",
    "rsvpId": "920854522",
    "eventId": "134391752",
    "response": "yes",
    "rsvpAt": 1376350357000,
    "guests": 0
  },
  {
    "_id": "521abaa7aba9f11536b3a2d8",
    "groupId": "3250422",
    "memberId": 4120377,
    "name": "Chris Faulkner",
    "joined": 1328989225000,
    "link": "http://www.meetup.com/members/4120377",
    "lon": -122.42,
    "lat": 37.78,
    "state": "CA",
    "city": "San Francisco",
    "avatar": "http://photos3.meetupstatic.com/photos/member/4/e/4/0/thumb_6380032.jpeg",
    "rsvpId": "920833002",
    "eventId": "134391752",
    "response": "yes",
    "rsvpAt": 1376349342000,
    "guests": 0
  },
  {
    "_id": "521abaa7aba9f11536b3a2d9",
    "groupId": "3250422",
    "memberId": 4325133,
    "name": "Patrick Farrell",
    "joined": 1357780844000,
    "link": "http://www.meetup.com/members/4325133",
    "lon": -122.23,
    "lat": 37.82,
    "state": "CA",
    "city": "Oakland",
    "avatar": "http://photos1.meetupstatic.com/photos/member/1/5/e/c/thumb_82385612.jpeg",
    "rsvpId": "921590422",
    "eventId": "134391752",
    "response": "no",
    "rsvpAt": 1376405289000,
    "guests": 0
  },
  {
    "_id": "521abaa7aba9f11536b3a2da",
    "groupId": "3250422",
    "memberId": 4554756,
    "name": "Adil Lotia",
    "joined": 1360622218000,
    "link": "http://www.meetup.com/members/4554756",
    "lon": -122.08,
    "lat": 37.38,
    "state": "CA",
    "city": "Mountain View",
    "avatar": "http://photos4.meetupstatic.com/photos/member/4/6/8/e/thumb_97278062.jpeg",
    "rsvpId": "920866072",
    "eventId": "134391752",
    "response": "yes",
    "rsvpAt": 1376350886000,
    "guests": 0
  },
  {
    "_id": "521abaa7aba9f11536b3a2db",
    "groupId": "3250422",
    "memberId": 4696287,
    "name": "Jason Sundram",
    "joined": 1354179522000,
    "link": "http://www.meetup.com/members/4696287",
    "lon": -122.4,
    "lat": 37.77,
    "state": "CA",
    "city": "San Francisco",
    "avatar": "http://photos2.meetupstatic.com/photos/member/6/6/6/c/thumb_9206220.jpeg",
    "rsvpId": "920845002",
    "eventId": "134391752",
    "response": "no",
    "rsvpAt": 1376349907000,
    "guests": 0
  },
  {
    "_id": "521abaa7aba9f11536b3a2dc",
    "groupId": "3250422",
    "memberId": 4860460,
    "name": "mary13",
    "joined": 1372787778000,
    "link": "http://www.meetup.com/members/4860460",
    "lon": -122.44,
    "lat": 37.77,
    "state": "CA",
    "city": "San Francisco",
    "avatar": "http://photos1.meetupstatic.com/photos/member/2/4/4/c/thumb_129429292.jpeg",
    "rsvpId": "920863882",
    "eventId": "134391752",
    "response": "yes",
    "rsvpAt": 1376350788000,
    "guests": 0
  },
  {
    "_id": "521abaa7aba9f11536b3a2dd",
    "groupId": "3250422",
    "memberId": 4935983,
    "name": "Al",
    "joined": 1332133670000,
    "link": "http://www.meetup.com/members/4935983",
    "lon": -122.42,
    "lat": 37.78,
    "state": "CA",
    "city": "San Francisco",
    "avatar": "http://photos4.meetupstatic.com/photos/member/8/9/5/c/thumb_5375164.jpeg",
    "rsvpId": "920868252",
    "eventId": "134391752",
    "response": "no",
    "rsvpAt": 1376350993000,
    "guests": 0
  },
  {
    "_id": "521abaa7aba9f11536b3a2de",
    "groupId": "3250422",
    "memberId": 5399414,
    "name": "Jon Nguyen",
    "joined": 1350542165000,
    "link": "http://www.meetup.com/members/5399414",
    "lon": -122.44,
    "lat": 37.78,
    "state": "CA",
    "city": "San Francisco",
    "avatar": "http://photos2.meetupstatic.com/photos/member/9/e/3/thumb_13982531.jpeg",
    "rsvpId": "920864552",
    "eventId": "134391752",
    "response": "yes",
    "rsvpAt": 1376350820000,
    "guests": 0
  },
  {
    "_id": "521abaa7aba9f11536b3a2df",
    "groupId": "3250422",
    "memberId": 5566659,
    "name": "Hung Dao",
    "joined": 1376349661000,
    "link": "http://www.meetup.com/members/5566659",
    "lon": -122.4,
    "lat": 37.8,
    "state": "CA",
    "city": "San Francisco",
    "avatar": "http://photos4.meetupstatic.com/photos/member/5/b/4/c/thumb_139403372.jpeg",
    "rsvpId": "920840142",
    "eventId": "134391752",
    "response": "yes",
    "rsvpAt": 1376349674000,
    "guests": 0
  },
  {
    "_id": "521abaa7aba9f11536b3a2e0",
    "groupId": "3250422",
    "memberId": 5807837,
    "name": "Balï¿½zs Nagy",
    "joined": 1365203667000,
    "link": "http://www.meetup.com/members/5807837",
    "lon": -122.08,
    "lat": 37.41,
    "state": "CA",
    "city": "Mountain View",
    "avatar": "http://photos2.meetupstatic.com/photos/member/b/5/c/4/thumb_93046532.jpeg",
    "rsvpId": "926601982",
    "eventId": "134391752",
    "response": "no",
    "rsvpAt": 1376715405000,
    "guests": 0
  },
  {
    "_id": "521abaa7aba9f11536b3a2e1",
    "groupId": "3250422",
    "memberId": 5808795,
    "name": "Eric Theise",
    "joined": 1331686250000,
    "link": "http://www.meetup.com/members/5808795",
    "lon": -122.4,
    "lat": 37.77,
    "state": "CA",
    "city": "San Francisco",
    "avatar": "http://photos2.meetupstatic.com/photos/member/3/7/9/b/thumb_5354235.jpeg",
    "rsvpId": "920813492",
    "eventId": "134391752",
    "response": "yes",
    "rsvpAt": 1376348529000,
    "guests": 0
  },
  {
    "_id": "521abaa7aba9f11536b3a2e2",
    "groupId": "3250422",
    "memberId": 5845233,
    "name": "Chaddus Bruce-Wen",
    "joined": 1344892818000,
    "link": "http://www.meetup.com/members/5845233",
    "lon": -122.44,
    "lat": 37.77,
    "state": "CA",
    "city": "San Francisco",
    "avatar": "http://photos2.meetupstatic.com/photos/member/4/e/7/2/thumb_75680082.jpeg",
    "rsvpId": "920818082",
    "eventId": "134391752",
    "response": "yes",
    "rsvpAt": 1376348743000,
    "guests": 0
  },
  {
    "_id": "521abaa7aba9f11536b3a2e3",
    "groupId": "3250422",
    "memberId": 6244772,
    "name": "mtraven",
    "joined": 1343014941000,
    "link": "http://www.meetup.com/members/6244772",
    "lon": -122.49,
    "lat": 37.6,
    "state": "CA",
    "city": "Pacifica",
    "avatar": "http://photos2.meetupstatic.com/photos/member/a/e/3/0/thumb_75944592.jpeg",
    "rsvpId": "932613812",
    "eventId": "134391752",
    "response": "waitlist",
    "rsvpAt": 1377114881000,
    "guests": 0
  },
  {
    "_id": "521abaa7aba9f11536b3a2e4",
    "groupId": "3250422",
    "memberId": 6536903,
    "name": "Kevin Gates",
    "joined": 1346805295000,
    "link": "http://www.meetup.com/members/6536903",
    "lon": -122.44,
    "lat": 37.72,
    "state": "CA",
    "city": "San Francisco",
    "avatar": "http://photos2.meetupstatic.com/photos/member/c/b/4/a/thumb_70852042.jpeg",
    "rsvpId": "923555382",
    "eventId": "134391752",
    "response": "yes",
    "rsvpAt": 1376518669000,
    "guests": 0
  },
  {
    "_id": "521abaa7aba9f11536b3a2e5",
    "groupId": "3250422",
    "memberId": 6846652,
    "name": "James Smith",
    "joined": 1376355570000,
    "link": "http://www.meetup.com/members/6846652",
    "lon": -122.4,
    "lat": 37.77,
    "state": "CA",
    "city": "San Francisco",
    "avatar": "http://photos1.meetupstatic.com/photos/member/7/b/5/d/thumb_13711581.jpeg",
    "rsvpId": "920968362",
    "eventId": "134391752",
    "response": "yes",
    "rsvpAt": 1376355658000,
    "guests": 0
  },
  {
    "_id": "521abaa7aba9f11536b3a2e6",
    "groupId": "3250422",
    "memberId": 7446498,
    "name": "John Kern",
    "joined": 1362158058000,
    "link": "http://www.meetup.com/members/7446498",
    "lon": -122.19,
    "lat": 37.44,
    "state": "CA",
    "city": "Menlo Park",
    "avatar": "http://photos1.meetupstatic.com/photos/member/4/b/2/2/thumb_4099234.jpeg",
    "rsvpId": "932620122",
    "eventId": "134391752",
    "response": "no",
    "rsvpAt": 1377115177000,
    "guests": 0
  },
  {
    "_id": "521abaa7aba9f11536b3a2e7",
    "groupId": "3250422",
    "memberId": 7769551,
    "name": "Bob Burbach",
    "joined": 1355078493000,
    "link": "http://www.meetup.com/members/7769551",
    "lon": -122.44,
    "lat": 37.78,
    "state": "CA",
    "city": "San Francisco",
    "avatar": "http://photos4.meetupstatic.com/photos/member/e/8/9/e/thumb_7439550.jpeg",
    "rsvpId": "920875262",
    "eventId": "134391752",
    "response": "yes",
    "rsvpAt": 1376351322000,
    "guests": 0
  },
  {
    "_id": "521abaa7aba9f11536b3a2e8",
    "groupId": "3250422",
    "memberId": 7931456,
    "name": "miguel alvarado",
    "joined": 1375342191000,
    "link": "http://www.meetup.com/members/7931456",
    "lon": -122.42,
    "lat": 37.75,
    "state": "CA",
    "city": "San Francisco",
    "avatar": "http://photos1.meetupstatic.com/photos/member/4/4/9/a/thumb_6077562.jpeg",
    "rsvpId": "920816142",
    "eventId": "134391752",
    "response": "yes",
    "rsvpAt": 1376348648000,
    "guests": 0
  },
  {
    "_id": "521abaa7aba9f11536b3a2e9",
    "groupId": "3250422",
    "memberId": 8303316,
    "name": "jose d lopez",
    "joined": 1353196898000,
    "link": "http://www.meetup.com/members/8303316",
    "lon": -122.42,
    "lat": 37.78,
    "state": "CA",
    "city": "San Francisco",
    "avatar": "http://photos1.meetupstatic.com/photos/member/b/e/d/thumb_5103053.jpeg",
    "rsvpId": "927466092",
    "eventId": "134391752",
    "response": "waitlist",
    "rsvpAt": 1376791612000,
    "guests": 1
  },
  {
    "_id": "521abaa7aba9f11536b3a2ea",
    "groupId": "3250422",
    "memberId": 8553259,
    "name": "Luca Pellicoro",
    "joined": 1343261926000,
    "link": "http://www.meetup.com/members/8553259",
    "lon": -122.42,
    "lat": 37.75,
    "state": "CA",
    "city": "San Francisco",
    "avatar": "http://photos3.meetupstatic.com/photos/member/3/d/b/a/thumb_94695802.jpeg",
    "rsvpId": "921344922",
    "eventId": "134391752",
    "response": "yes",
    "rsvpAt": 1376385433000,
    "guests": 0
  },
  {
    "_id": "521abaa7aba9f11536b3a2eb",
    "groupId": "3250422",
    "memberId": 8682779,
    "name": "afshin mokhtari",
    "joined": 1368822636000,
    "link": "http://www.meetup.com/members/8682779",
    "lon": -122.27,
    "lat": 37.55,
    "state": "CA",
    "city": "San Mateo",
    "avatar": "http://photos4.meetupstatic.com/photos/member/4/1/0/2/thumb_121696642.jpeg",
    "rsvpId": "920816602",
    "eventId": "134391752",
    "response": "no",
    "rsvpAt": 1376348668000,
    "guests": 0
  },
  {
    "_id": "521abaa7aba9f11536b3a2ec",
    "groupId": "3250422",
    "memberId": 8695437,
    "name": "Andrew Wong",
    "joined": 1360539828000,
    "link": "http://www.meetup.com/members/8695437",
    "lon": -122.42,
    "lat": 37.75,
    "state": "CA",
    "city": "San Francisco",
    "avatar": "http://photos1.meetupstatic.com/photos/member/e/4/a/4/thumb_24838532.jpeg",
    "rsvpId": "920825052",
    "eventId": "134391752",
    "response": "yes",
    "rsvpAt": 1376349013000,
    "guests": 0
  },
  {
    "_id": "521abaa7aba9f11536b3a2ed",
    "groupId": "3250422",
    "memberId": 8872220,
    "name": "John Calvin",
    "joined": 1370469285000,
    "link": "http://www.meetup.com/members/8872220",
    "lon": -122.4,
    "lat": 37.77,
    "state": "CA",
    "city": "San Francisco",
    "avatar": "http://photos3.meetupstatic.com/photos/member/3/a/0/e/thumb_113654862.jpeg",
    "rsvpId": "920927952",
    "eventId": "134391752",
    "response": "yes",
    "rsvpAt": 1376353796000,
    "guests": 0
  },
  {
    "_id": "521abaa7aba9f11536b3a2ee",
    "groupId": "3250422",
    "memberId": 8896313,
    "name": "Krish Garimella",
    "joined": 1373333932000,
    "link": "http://www.meetup.com/members/8896313",
    "lon": -121.86,
    "lat": 37.22,
    "state": "CA",
    "city": "San Jose",
    "rsvpId": "926606782",
    "eventId": "134391752",
    "response": "waitlist",
    "rsvpAt": 1376715946000,
    "guests": 0
  },
  {
    "_id": "521abaa7aba9f11536b3a2ef",
    "groupId": "3250422",
    "memberId": 8944587,
    "name": "Aaron Hardin",
    "joined": 1350527731000,
    "link": "http://www.meetup.com/members/8944587",
    "lon": -122.41,
    "lat": 37.8,
    "state": "CA",
    "city": "San Francisco",
    "avatar": "http://photos1.meetupstatic.com/photos/member/5/4/f/8/thumb_77901752.jpeg",
    "rsvpId": "920991752",
    "eventId": "134391752",
    "response": "no",
    "rsvpAt": 1376356762000,
    "guests": 0
  },
  {
    "_id": "521abaa7aba9f11536b3a2f0",
    "groupId": "3250422",
    "memberId": 9175310,
    "name": "Wes McKinney",
    "joined": 1367363913000,
    "link": "http://www.meetup.com/members/9175310",
    "lon": -73.99,
    "lat": 40.73,
    "state": "NY",
    "city": "New York",
    "avatar": "http://photos2.meetupstatic.com/photos/member/8/8/7/4/thumb_35494932.jpeg",
    "rsvpId": "920818472",
    "eventId": "134391752",
    "response": "yes",
    "rsvpAt": 1376348757000,
    "guests": 1
  },
  {
    "_id": "521abaa7aba9f11536b3a2f1",
    "groupId": "3250422",
    "memberId": 9477778,
    "name": "sarah nahm",
    "joined": 1334965800000,
    "link": "http://www.meetup.com/members/9477778",
    "lon": -122.41,
    "lat": 37.77,
    "state": "CA",
    "city": "San Francisco",
    "avatar": "http://photos3.meetupstatic.com/photos/member/3/9/a/thumb_39060922.jpeg",
    "rsvpId": "922539672",
    "eventId": "134391752",
    "response": "yes",
    "rsvpAt": 1376450857000,
    "guests": 0
  },
  {
    "_id": "521abaa7aba9f11536b3a2f2",
    "groupId": "3250422",
    "memberId": 9514140,
    "name": "Dennis Coldwell",
    "joined": 1377204174000,
    "link": "http://www.meetup.com/members/9514140",
    "lon": -122.44,
    "lat": 37.72,
    "state": "CA",
    "city": "San Francisco",
    "avatar": "http://photos4.meetupstatic.com/photos/member/9/4/8/9/thumb_7778025.jpeg",
    "rsvpId": "934057212",
    "eventId": "134391752",
    "response": "waitlist",
    "rsvpAt": 1377204252000,
    "guests": 0
  },
  {
    "_id": "521abaa7aba9f11536b3a2f3",
    "groupId": "3250422",
    "memberId": 9748020,
    "name": "Andrew McCulloh",
    "joined": 1374857296000,
    "link": "http://www.meetup.com/members/9748020",
    "lon": -122.2,
    "lat": 37.49,
    "state": "CA",
    "city": "Redwood City",
    "avatar": "http://photos1.meetupstatic.com/photos/member/d/e/8/2/thumb_95876962.jpeg",
    "rsvpId": "920838432",
    "eventId": "134391752",
    "response": "no",
    "rsvpAt": 1376349596000,
    "guests": 0
  },
  {
    "_id": "521abaa7aba9f11536b3a2f4",
    "groupId": "3250422",
    "memberId": 9776751,
    "name": "Ian Johnson",
    "joined": 1328641765000,
    "link": "http://www.meetup.com/members/9776751",
    "lon": -122.2699966430664,
    "lat": 37.869998931884766,
    "state": "CA",
    "city": "Berkeley",
    "avatar": "http://photos2.meetupstatic.com/photos/member/a/6/4/2/thumb_70182562.jpeg",
    "rsvpId": "920808322",
    "eventId": "134391752",
    "response": "yes",
    "rsvpAt": 1376348277000,
    "guests": 0
  },
  {
    "_id": "521abaa7aba9f11536b3a2f5",
    "groupId": "3250422",
    "memberId": 9827963,
    "name": "Ram Narasimhan",
    "joined": 1364097918000,
    "link": "http://www.meetup.com/members/9827963",
    "lon": -122.02,
    "lat": 37.38,
    "state": "CA",
    "city": "Sunnyvale",
    "avatar": "http://photos1.meetupstatic.com/photos/member/e/2/c/4/thumb_26998052.jpeg",
    "rsvpId": "920835542",
    "eventId": "134391752",
    "response": "no",
    "rsvpAt": 1376349468000,
    "guests": 0
  },
  {
    "_id": "521abaa7aba9f11536b3a2f6",
    "groupId": "3250422",
    "memberId": 10126440,
    "name": "jari salomaa",
    "joined": 1376351079000,
    "link": "http://www.meetup.com/members/10126440",
    "lon": -122.4,
    "lat": 37.77,
    "state": "CA",
    "city": "San Francisco",
    "avatar": "http://photos2.meetupstatic.com/photos/member/5/b/f/6/thumb_44543542.jpeg",
    "rsvpId": "920870092",
    "eventId": "134391752",
    "response": "yes",
    "rsvpAt": 1376351080000,
    "guests": 0
  },
  {
    "_id": "521abaa7aba9f11536b3a2f7",
    "groupId": "3250422",
    "memberId": 10133242,
    "name": "Paul McGavin",
    "joined": 1360025176000,
    "link": "http://www.meetup.com/members/10133242",
    "lon": -122.66,
    "lat": 38.24,
    "state": "CA",
    "city": "Petaluma",
    "avatar": "http://photos1.meetupstatic.com/photos/member/3/c/8/8/thumb_7335496.jpeg",
    "rsvpId": "930489002",
    "eventId": "134391752",
    "response": "waitlist",
    "rsvpAt": 1376979403000,
    "guests": 0
  },
  {
    "_id": "521abaa7aba9f11536b3a2f8",
    "groupId": "3250422",
    "memberId": 10167209,
    "name": "Sam Arriola",
    "joined": 1367339198000,
    "link": "http://www.meetup.com/members/10167209",
    "lon": -122.27,
    "lat": 37.91,
    "state": "CA",
    "city": "Berkeley",
    "avatar": "http://photos2.meetupstatic.com/photos/member/6/0/e/c/thumb_33324812.jpeg",
    "rsvpId": "920961912",
    "eventId": "134391752",
    "response": "no",
    "rsvpAt": 1376355331000,
    "guests": 0
  },
  {
    "_id": "521abaa7aba9f11536b3a2f9",
    "groupId": "3250422",
    "memberId": 10252787,
    "name": "Stephen Murphy",
    "joined": 1368157577000,
    "link": "http://www.meetup.com/members/10252787",
    "lon": -122.02,
    "lat": 37.38,
    "state": "CA",
    "city": "Sunnyvale",
    "avatar": "http://photos3.meetupstatic.com/photos/member/c/1/9/0/thumb_36469552.jpeg",
    "rsvpId": "920881892",
    "eventId": "134391752",
    "response": "yes",
    "rsvpAt": 1376351612000,
    "guests": 1
  },
  {
    "_id": "521abaa7aba9f11536b3a2fa",
    "groupId": "3250422",
    "memberId": 10268401,
    "name": "krishna prasad",
    "joined": 1368579640000,
    "link": "http://www.meetup.com/members/10268401",
    "lon": 4.89,
    "lat": 52.37,
    "state": null,
    "city": "Amsterdam",
    "avatar": "http://photos3.meetupstatic.com/photos/member/9/2/7/7/thumb_7537495.jpeg",
    "rsvpId": "920961512",
    "eventId": "134391752",
    "response": "yes",
    "rsvpAt": 1376355308000,
    "guests": 0
  },
  {
    "_id": "521abaa7aba9f11536b3a2fb",
    "groupId": "3250422",
    "memberId": 10330110,
    "name": "Quynh Neutron",
    "joined": 1343282712000,
    "link": "http://www.meetup.com/members/10330110",
    "lon": -122.15,
    "lat": 37.44,
    "state": "CA",
    "city": "Palo Alto",
    "avatar": "http://photos2.meetupstatic.com/photos/member/d/9/c/8/thumb_30775752.jpeg",
    "rsvpId": "933303712",
    "eventId": "134391752",
    "response": "waitlist",
    "rsvpAt": 1377152769000,
    "guests": 0
  },
  {
    "_id": "521abaa7aba9f11536b3a2fc",
    "groupId": "3250422",
    "memberId": 10386202,
    "name": "Peter Li",
    "joined": 1339599292000,
    "link": "http://www.meetup.com/members/10386202",
    "lon": -122.08,
    "lat": 37.41,
    "state": "CA",
    "city": "Mountain View",
    "rsvpId": "920812022",
    "eventId": "134391752",
    "response": "no",
    "rsvpAt": 1376348455000,
    "guests": 0
  },
  {
    "_id": "521abaa7aba9f11536b3a2fd",
    "groupId": "3250422",
    "memberId": 10390178,
    "name": "Roman Kofman",
    "joined": 1371576763000,
    "link": "http://www.meetup.com/members/10390178",
    "lon": -122.42,
    "lat": 37.75,
    "state": "CA",
    "city": "San Francisco",
    "avatar": "http://photos3.meetupstatic.com/photos/member/3/1/0/f/thumb_11772559.jpeg",
    "rsvpId": "920825322",
    "eventId": "134391752",
    "response": "yes",
    "rsvpAt": 1376349022000,
    "guests": 0
  },
  {
    "_id": "521abaa7aba9f11536b3a2fe",
    "groupId": "3250422",
    "memberId": 10398140,
    "name": "Scott Haefner",
    "joined": 1376068395000,
    "link": "http://www.meetup.com/members/10398140",
    "lon": -122.41,
    "lat": 37.77,
    "state": "CA",
    "city": "San Francisco",
    "avatar": "http://photos1.meetupstatic.com/photos/member/7/0/3/2/thumb_49108722.jpeg",
    "rsvpId": "920868362",
    "eventId": "134391752",
    "response": "yes",
    "rsvpAt": 1376350998000,
    "guests": 0
  },
  {
    "_id": "521abaa7aba9f11536b3a2ff",
    "groupId": "3250422",
    "memberId": 10479885,
    "name": "Adam November",
    "joined": 1357806793000,
    "link": "http://www.meetup.com/members/10479885",
    "lon": -122.4,
    "lat": 37.77,
    "state": "CA",
    "city": "San Francisco",
    "avatar": "http://photos2.meetupstatic.com/photos/member/9/d/a/thumb_23582522.jpeg",
    "rsvpId": "926520942",
    "eventId": "134391752",
    "response": "waitlist",
    "rsvpAt": 1376708918000,
    "guests": 0
  },
  {
    "_id": "521abaa7aba9f11536b3a300",
    "groupId": "3250422",
    "memberId": 10534487,
    "name": "Dem Pilafian",
    "joined": 1376355473000,
    "link": "http://www.meetup.com/members/10534487",
    "lon": -122.4,
    "lat": 37.79,
    "state": "CA",
    "city": "San Francisco",
    "avatar": "http://photos2.meetupstatic.com/photos/member/9/f/9/4/thumb_81640852.jpeg",
    "rsvpId": "920964992",
    "eventId": "134391752",
    "response": "yes",
    "rsvpAt": 1376355474000,
    "guests": 0
  },
  {
    "_id": "521abaa7aba9f11536b3a301",
    "groupId": "3250422",
    "memberId": 10695576,
    "name": "Sergey",
    "joined": 1367247298000,
    "link": "http://www.meetup.com/members/10695576",
    "lon": -122.4,
    "lat": 37.77,
    "state": "CA",
    "city": "San Francisco",
    "avatar": "http://photos2.meetupstatic.com/photos/member/c/a/c/1/thumb_12591905.jpeg",
    "rsvpId": "920882352",
    "eventId": "134391752",
    "response": "no",
    "rsvpAt": 1376351632000,
    "guests": 0
  },
  {
    "_id": "521abaa7aba9f11536b3a302",
    "groupId": "3250422",
    "memberId": 10737491,
    "name": "Lincoln Nguyen",
    "joined": 1330289193000,
    "link": "http://www.meetup.com/members/10737491",
    "lon": -122.08,
    "lat": 37.41,
    "state": "CA",
    "city": "Mountain View",
    "avatar": "http://photos4.meetupstatic.com/photos/member/1/d/8/0/thumb_127867552.jpeg",
    "rsvpId": "920813372",
    "eventId": "134391752",
    "response": "yes",
    "rsvpAt": 1376348521000,
    "guests": 0
  },
  {
    "_id": "521abaa7aba9f11536b3a303",
    "groupId": "3250422",
    "memberId": 10804631,
    "name": "Conor Nash",
    "joined": 1351473685000,
    "link": "http://www.meetup.com/members/10804631",
    "lon": -122.42,
    "lat": 37.78,
    "state": "CA",
    "city": "San Francisco",
    "avatar": "http://photos1.meetupstatic.com/photos/member/b/2/b/8/thumb_31005752.jpeg",
    "rsvpId": "920815672",
    "eventId": "134391752",
    "response": "yes",
    "rsvpAt": 1376348627000,
    "guests": 0
  },
  {
    "_id": "521abaa7aba9f11536b3a304",
    "groupId": "3250422",
    "memberId": 10838442,
    "name": "Dan Harrelson",
    "joined": 1361581982000,
    "link": "http://www.meetup.com/members/10838442",
    "lon": -122.4,
    "lat": 37.79,
    "state": "CA",
    "city": "San Francisco",
    "avatar": "http://photos3.meetupstatic.com/photos/member/4/5/8/6/thumb_10757798.jpeg",
    "rsvpId": "921590732",
    "eventId": "134391752",
    "response": "no",
    "rsvpAt": 1376405303000,
    "guests": 0
  },
  {
    "_id": "521abaa7aba9f11536b3a305",
    "groupId": "3250422",
    "memberId": 10967910,
    "name": "Ken Pascual",
    "joined": 1330904976000,
    "link": "http://www.meetup.com/members/10967910",
    "lon": -122.41,
    "lat": 37.8,
    "state": "CA",
    "city": "San Francisco",
    "avatar": "http://photos2.meetupstatic.com/photos/member/8/4/4/2/thumb_11373858.jpeg",
    "rsvpId": "920889982",
    "eventId": "134391752",
    "response": "yes",
    "rsvpAt": 1376351995000,
    "guests": 0
  },
  {
    "_id": "521abaa7aba9f11536b3a306",
    "groupId": "3250422",
    "memberId": 11030415,
    "name": "John Firebaugh",
    "joined": 1348949392000,
    "link": "http://www.meetup.com/members/11030415",
    "lon": -122.44,
    "lat": 37.76,
    "state": "CA",
    "city": "San Francisco",
    "avatar": "http://photos3.meetupstatic.com/photos/member/e/7/b/0/thumb_8399312.jpeg",
    "rsvpId": "926519642",
    "eventId": "134391752",
    "response": "no",
    "rsvpAt": 1376708810000,
    "guests": 0
  },
  {
    "_id": "521abaa7aba9f11536b3a307",
    "groupId": "3250422",
    "memberId": 11182982,
    "name": "Conrad Wade",
    "joined": 1351545939000,
    "link": "http://www.meetup.com/members/11182982",
    "lon": -122.41,
    "lat": 37.77,
    "state": "CA",
    "city": "San Francisco",
    "avatar": "http://photos4.meetupstatic.com/photos/member/1/8/6/0/thumb_8586240.jpeg",
    "rsvpId": "933969712",
    "eventId": "134391752",
    "response": "waitlist",
    "rsvpAt": 1377200031000,
    "guests": 1
  },
  {
    "_id": "521abaa7aba9f11536b3a308",
    "groupId": "3250422",
    "memberId": 11407235,
    "name": "Andy Baumgartner",
    "joined": 1371174625000,
    "link": "http://www.meetup.com/members/11407235",
    "lon": -122.24,
    "lat": 37.82,
    "state": "CA",
    "city": "Oakland",
    "avatar": "http://photos3.meetupstatic.com/photos/member/8/f/7/2/thumb_127056722.jpeg",
    "rsvpId": "921133632",
    "eventId": "134391752",
    "response": "no",
    "rsvpAt": 1376363743000,
    "guests": 0
  },
  {
    "_id": "521abaa7aba9f11536b3a309",
    "groupId": "3250422",
    "memberId": 11476916,
    "name": "Aaron Kulick",
    "joined": 1351263449000,
    "link": "http://www.meetup.com/members/11476916",
    "lon": -122.02,
    "lat": 37.27,
    "state": "CA",
    "city": "Saratoga",
    "avatar": "http://photos2.meetupstatic.com/photos/member/9/3/f/0/thumb_59377872.jpeg",
    "rsvpId": "923278812",
    "eventId": "134391752",
    "response": "yes",
    "rsvpAt": 1376505328000,
    "guests": 0
  },
  {
    "_id": "521abaa7aba9f11536b3a30a",
    "groupId": "3250422",
    "memberId": 11569972,
    "name": "cheong-tseng eng",
    "joined": 1329700888000,
    "link": "http://www.meetup.com/members/11569972",
    "lon": -122.29,
    "lat": 37.81,
    "state": "CA",
    "city": "Oakland",
    "avatar": "http://photos2.meetupstatic.com/photos/member/d/7/c/f/thumb_9055247.jpeg",
    "rsvpId": "920821202",
    "eventId": "134391752",
    "response": "no",
    "rsvpAt": 1376348880000,
    "guests": 0
  },
  {
    "_id": "521abaa7aba9f11536b3a30b",
    "groupId": "3250422",
    "memberId": 11604135,
    "name": "Simplicio Gamboa III",
    "joined": 1361519176000,
    "link": "http://www.meetup.com/members/11604135",
    "lon": -122.44,
    "lat": 37.78,
    "state": "CA",
    "city": "San Francisco",
    "avatar": "http://photos3.meetupstatic.com/photos/member/7/d/8/e/thumb_77912142.jpeg",
    "rsvpId": "920938732",
    "eventId": "134391752",
    "response": "yes",
    "rsvpAt": 1376354240000,
    "guests": 0
  },
  {
    "_id": "521abaa7aba9f11536b3a30c",
    "groupId": "3250422",
    "memberId": 11779565,
    "name": "William Leong",
    "joined": 1368857752000,
    "link": "http://www.meetup.com/members/11779565",
    "lon": -122.13,
    "lat": 37.42,
    "state": "CA",
    "city": "Palo Alto",
    "avatar": "http://photos1.meetupstatic.com/photos/member/b/f/2/e/thumb_42348942.jpeg",
    "rsvpId": "920813942",
    "eventId": "134391752",
    "response": "no",
    "rsvpAt": 1376348548000,
    "guests": 0
  },
  {
    "_id": "521abaa7aba9f11536b3a30d",
    "groupId": "3250422",
    "memberId": 11781658,
    "name": "G. Chen",
    "joined": 1346868639000,
    "link": "http://www.meetup.com/members/11781658",
    "lon": -122.09,
    "lat": 37.34,
    "state": "CA",
    "city": "San Jose",
    "avatar": "http://photos1.meetupstatic.com/photos/member/2/a/7/7/thumb_16090871.jpeg",
    "rsvpId": "921275052",
    "eventId": "134391752",
    "response": "yes",
    "rsvpAt": 1376374612000,
    "guests": 0
  },
  {
    "_id": "521abaa7aba9f11536b3a30e",
    "groupId": "3250422",
    "memberId": 11829914,
    "name": "Rolf Widenfelt",
    "joined": 1367434637000,
    "link": "http://www.meetup.com/members/11829914",
    "lon": -122.23,
    "lat": 37.82,
    "state": "CA",
    "city": "Oakland",
    "avatar": "http://photos3.meetupstatic.com/photos/member/7/b/a/0/thumb_12451648.jpeg",
    "rsvpId": "920884092",
    "eventId": "134391752",
    "response": "no",
    "rsvpAt": 1376351721000,
    "guests": 0
  },
  {
    "_id": "521abaa7aba9f11536b3a30f",
    "groupId": "3250422",
    "memberId": 11938307,
    "name": "Edison",
    "joined": 1368937146000,
    "link": "http://www.meetup.com/members/11938307",
    "lon": -122.01,
    "lat": 37.4,
    "state": "CA",
    "city": "Sunnyvale",
    "avatar": "http://photos3.meetupstatic.com/photos/member/5/1/4/c/thumb_58640812.jpeg",
    "rsvpId": "921176602",
    "eventId": "134391752",
    "response": "yes",
    "rsvpAt": 1376366332000,
    "guests": 0
  },
  {
    "_id": "521abaa7aba9f11536b3a310",
    "groupId": "3250422",
    "memberId": 11944206,
    "name": "Aaron Williams",
    "joined": 1374707208000,
    "link": "http://www.meetup.com/members/11944206",
    "lon": -122.42,
    "lat": 37.78,
    "state": "CA",
    "city": "San Francisco",
    "avatar": "http://photos3.meetupstatic.com/photos/member/6/b/5/9/thumb_16227481.jpeg",
    "rsvpId": "920857662",
    "eventId": "134391752",
    "response": "no",
    "rsvpAt": 1376350503000,
    "guests": 0
  },
  {
    "_id": "521abaa7aba9f11536b3a311",
    "groupId": "3250422",
    "memberId": 12119211,
    "name": "Eric Legrand",
    "joined": 1360019938000,
    "link": "http://www.meetup.com/members/12119211",
    "lon": -122.41,
    "lat": 37.8,
    "state": "CA",
    "city": "San Francisco",
    "avatar": "http://photos3.meetupstatic.com/photos/member/9/2/b/a/thumb_84457562.jpeg",
    "rsvpId": "920894562",
    "eventId": "134391752",
    "response": "no",
    "rsvpAt": 1376352217000,
    "guests": 0
  },
  {
    "_id": "521abaa7aba9f11536b3a312",
    "groupId": "3250422",
    "memberId": 12186574,
    "name": "Ken Penn",
    "joined": 1328992432000,
    "link": "http://www.meetup.com/members/12186574",
    "lon": -122.62,
    "lat": 37.96,
    "state": "CA",
    "city": "Fairfax",
    "avatar": "http://photos4.meetupstatic.com/photos/member/3/6/0/2/thumb_12073826.jpeg",
    "rsvpId": "920810042",
    "eventId": "134391752",
    "response": "yes",
    "rsvpAt": 1376348350000,
    "guests": 0
  },
  {
    "_id": "521abaa7aba9f11536b3a313",
    "groupId": "3250422",
    "memberId": 12354398,
    "name": "Eric Knudtson",
    "joined": 1376502098000,
    "link": "http://www.meetup.com/members/12354398",
    "lon": -122.29,
    "lat": 37.83,
    "state": "CA",
    "city": "Emeryville",
    "avatar": "http://photos2.meetupstatic.com/photos/member/6/2/d/6/thumb_137905302.jpeg",
    "rsvpId": "932634222",
    "eventId": "134391752",
    "response": "waitlist",
    "rsvpAt": 1377115828000,
    "guests": 0
  },
  {
    "_id": "521abaa7aba9f11536b3a314",
    "groupId": "3250422",
    "memberId": 12365896,
    "name": "Adelaide",
    "joined": 1356036897000,
    "link": "http://www.meetup.com/members/12365896",
    "lon": -121.86,
    "lat": 37.41,
    "state": "CA",
    "city": "San Jose",
    "avatar": "http://photos2.meetupstatic.com/photos/member/7/f/4/thumb_10022036.jpeg",
    "rsvpId": "920844672",
    "eventId": "134391752",
    "response": "no",
    "rsvpAt": 1376349885000,
    "guests": 0
  },
  {
    "_id": "521abaa7aba9f11536b3a315",
    "groupId": "3250422",
    "memberId": 12384543,
    "name": "Geoffrey Pay",
    "joined": 1331127784000,
    "link": "http://www.meetup.com/members/12384543",
    "lon": -122.42,
    "lat": 37.79,
    "state": "CA",
    "city": "San Francisco",
    "avatar": "http://photos2.meetupstatic.com/photos/member/6/f/7/7/thumb_10048535.jpeg",
    "rsvpId": "925309682",
    "eventId": "134391752",
    "response": "yes",
    "rsvpAt": 1376627527000,
    "guests": 0
  },
  {
    "_id": "521abaa7aba9f11536b3a316",
    "groupId": "3250422",
    "memberId": 12405427,
    "name": "Srinivas Ashok",
    "joined": 1361473733000,
    "link": "http://www.meetup.com/members/12405427",
    "lon": -122.22,
    "lat": 37.84,
    "state": "CA",
    "city": "Oakland",
    "avatar": "http://photos2.meetupstatic.com/photos/member/2/8/c/thumb_52200652.jpeg",
    "rsvpId": "920824002",
    "eventId": "134391752",
    "response": "yes",
    "rsvpAt": 1376348973000,
    "guests": 0
  },
  {
    "_id": "521abaa7aba9f11536b3a317",
    "groupId": "3250422",
    "memberId": 12457723,
    "name": "Laurie Reynolds",
    "joined": 1344532352000,
    "link": "http://www.meetup.com/members/12457723",
    "lon": -121.96,
    "lat": 37.35,
    "state": "CA",
    "city": "Santa Clara",
    "avatar": "http://photos2.meetupstatic.com/photos/member/6/d/d/a/thumb_66808122.jpeg",
    "rsvpId": "921017902",
    "eventId": "134391752",
    "response": "no",
    "rsvpAt": 1376358043000,
    "guests": 0
  },
  {
    "_id": "521abaa7aba9f11536b3a318",
    "groupId": "3250422",
    "memberId": 12588679,
    "name": "Kristin Henry",
    "joined": 1339532062000,
    "link": "http://www.meetup.com/members/12588679",
    "lon": -122.41,
    "lat": 37.77,
    "state": "CA",
    "city": "San Francisco",
    "avatar": "http://photos4.meetupstatic.com/photos/member/a/f/5/6/thumb_10304886.jpeg",
    "rsvpId": "926514062",
    "eventId": "134391752",
    "response": "yes",
    "rsvpAt": 1376708358000,
    "guests": 0
  },
  {
    "_id": "521abaa7aba9f11536b3a319",
    "groupId": "3250422",
    "memberId": 12636124,
    "name": "Sarah Groff-Palermo",
    "joined": 1331097000000,
    "link": "http://www.meetup.com/members/12636124",
    "lon": -122.42,
    "lat": 37.75,
    "state": "CA",
    "city": "San Francisco",
    "avatar": "http://photos2.meetupstatic.com/photos/member/3/d/6/thumb_33540982.jpeg",
    "rsvpId": "920811082",
    "eventId": "134391752",
    "response": "yes",
    "rsvpAt": 1376348400000,
    "guests": 1
  },
  {
    "_id": "521abaa7aba9f11536b3a31a",
    "groupId": "3250422",
    "memberId": 12778876,
    "name": "Tobin Van Pelt",
    "joined": 1359735253000,
    "link": "http://www.meetup.com/members/12778876",
    "lon": -122.57,
    "lat": 37.89,
    "state": "CA",
    "city": "Mill Valley",
    "avatar": "http://photos2.meetupstatic.com/photos/member/8/b/2/4/thumb_10535620.jpeg",
    "rsvpId": "920853132",
    "eventId": "134391752",
    "response": "yes",
    "rsvpAt": 1376350300000,
    "guests": 0
  },
  {
    "_id": "521abaa7aba9f11536b3a31b",
    "groupId": "3250422",
    "memberId": 12822831,
    "name": "Robweedn ",
    "joined": 1342122341000,
    "link": "http://www.meetup.com/members/12822831",
    "lon": -122.44,
    "lat": 37.76,
    "state": "CA",
    "city": "San Francisco",
    "avatar": "http://photos4.meetupstatic.com/photos/member/a/0/c/d/thumb_10661165.jpeg",
    "rsvpId": "920936222",
    "eventId": "134391752",
    "response": "yes",
    "rsvpAt": 1376354130000,
    "guests": 0
  },
  {
    "_id": "521abaa7aba9f11536b3a31c",
    "groupId": "3250422",
    "memberId": 12853642,
    "name": "Sunny",
    "joined": 1338338003000,
    "link": "http://www.meetup.com/members/12853642",
    "lon": -121.89,
    "lat": 37.39,
    "state": "CA",
    "city": "San Jose",
    "avatar": "http://photos2.meetupstatic.com/photos/member/a/e/8/0/thumb_56264672.jpeg",
    "rsvpId": "920844082",
    "eventId": "134391752",
    "response": "yes",
    "rsvpAt": 1376349855000,
    "guests": 0
  },
  {
    "_id": "521abaa7aba9f11536b3a31d",
    "groupId": "3250422",
    "memberId": 12863472,
    "name": "Chloe Fan",
    "joined": 1364229666000,
    "link": "http://www.meetup.com/members/12863472",
    "lon": -122.4,
    "lat": 37.77,
    "state": "CA",
    "city": "San Francisco",
    "avatar": "http://photos3.meetupstatic.com/photos/member/4/0/f/8/thumb_131836632.jpeg",
    "rsvpId": "926528742",
    "eventId": "134391752",
    "response": "waitlist",
    "rsvpAt": 1376709410000,
    "guests": 0
  },
  {
    "_id": "521abaa7aba9f11536b3a31e",
    "groupId": "3250422",
    "memberId": 12864779,
    "name": "Robert Manson",
    "joined": 1334190597000,
    "link": "http://www.meetup.com/members/12864779",
    "lon": -122.44,
    "lat": 37.76,
    "state": "CA",
    "city": "San Francisco",
    "avatar": "http://photos4.meetupstatic.com/photos/member/d/a/1/a/thumb_10915834.jpeg",
    "rsvpId": "920885342",
    "eventId": "134391752",
    "response": "yes",
    "rsvpAt": 1376351781000,
    "guests": 1
  },
  {
    "_id": "521abaa7aba9f11536b3a31f",
    "groupId": "3250422",
    "memberId": 12919908,
    "name": "Kai Chang",
    "joined": 1328660251000,
    "link": "http://www.meetup.com/members/12919908",
    "lon": -122.42,
    "lat": 37.79,
    "state": "CA",
    "city": "San Francisco",
    "avatar": "http://photos1.meetupstatic.com/photos/member/2/6/4/thumb_41820612.jpeg",
    "rsvpId": "920825442",
    "eventId": "134391752",
    "response": "no",
    "rsvpAt": 1376349028000,
    "guests": 0
  },
  {
    "_id": "521abaa7aba9f11536b3a320",
    "groupId": "3250422",
    "memberId": 12947611,
    "name": "Indhira",
    "joined": 1352861510000,
    "link": "http://www.meetup.com/members/12947611",
    "lon": -122.42,
    "lat": 37.75,
    "state": "CA",
    "city": "San Francisco",
    "avatar": "http://photos1.meetupstatic.com/photos/member/2/f/5/a/thumb_29292122.jpeg",
    "rsvpId": "927083702",
    "eventId": "134391752",
    "response": "waitlist",
    "rsvpAt": 1376763302000,
    "guests": 0
  },
  {
    "_id": "521abaa7aba9f11536b3a321",
    "groupId": "3250422",
    "memberId": 12992290,
    "name": "Dow Street",
    "joined": 1328643395000,
    "link": "http://www.meetup.com/members/12992290",
    "lon": -122.44,
    "lat": 37.77,
    "state": "CA",
    "city": "San Francisco",
    "avatar": "http://photos4.meetupstatic.com/photos/member/7/7/7/f/thumb_21030591.jpeg",
    "rsvpId": "920850552",
    "eventId": "134391752",
    "response": "yes",
    "rsvpAt": 1376350162000,
    "guests": 0
  },
  {
    "_id": "521abaa7aba9f11536b3a322",
    "groupId": "3250422",
    "memberId": 13095892,
    "name": "Zeus Courtois",
    "joined": 1363291317000,
    "link": "http://www.meetup.com/members/13095892",
    "lon": -122.44,
    "lat": 37.8,
    "state": "CA",
    "city": "San Francisco",
    "avatar": "http://photos3.meetupstatic.com/photos/member/8/c/7/0/thumb_103955952.jpeg",
    "rsvpId": "926516052",
    "eventId": "134391752",
    "response": "yes",
    "rsvpAt": 1376708507000,
    "guests": 0
  },
  {
    "_id": "521abaa7aba9f11536b3a323",
    "groupId": "3250422",
    "memberId": 13152354,
    "name": "Nick",
    "joined": 1375746766000,
    "link": "http://www.meetup.com/members/13152354",
    "lon": -121.96,
    "lat": 37.35,
    "state": "CA",
    "city": "Santa Clara",
    "avatar": "http://photos4.meetupstatic.com/photos/member/3/a/6/8/thumb_128414952.jpeg",
    "rsvpId": "921086942",
    "eventId": "134391752",
    "response": "no",
    "rsvpAt": 1376361290000,
    "guests": 0
  },
  {
    "_id": "521abaa7aba9f11536b3a324",
    "groupId": "3250422",
    "memberId": 13279064,
    "name": "tyson daugherty",
    "joined": 1366563350000,
    "link": "http://www.meetup.com/members/13279064",
    "lon": -122.08,
    "lat": 37.41,
    "state": "CA",
    "city": "Mountain View",
    "avatar": "http://photos3.meetupstatic.com/photos/member/a/1/d/8/thumb_102041432.jpeg",
    "rsvpId": "920833972",
    "eventId": "134391752",
    "response": "no",
    "rsvpAt": 1376349391000,
    "guests": 0
  },
  {
    "_id": "521abaa7aba9f11536b3a325",
    "groupId": "3250422",
    "memberId": 13291011,
    "name": "Daniel Cohen",
    "joined": 1360011059000,
    "link": "http://www.meetup.com/members/13291011",
    "lon": -122.44,
    "lat": 37.76,
    "state": "CA",
    "city": "San Francisco",
    "avatar": "http://photos2.meetupstatic.com/photos/member/3/e/f/a/thumb_100696122.jpeg",
    "rsvpId": "920941272",
    "eventId": "134391752",
    "response": "yes",
    "rsvpAt": 1376354367000,
    "guests": 0
  },
  {
    "_id": "521abaa7aba9f11536b3a326",
    "groupId": "3250422",
    "memberId": 13332894,
    "name": "Edward Fine",
    "joined": 1334550560000,
    "link": "http://www.meetup.com/members/13332894",
    "lon": -122.41,
    "lat": 37.8,
    "state": "CA",
    "city": "San Francisco",
    "avatar": "http://photos4.meetupstatic.com/photos/member/9/9/d/6/thumb_141159382.jpeg",
    "rsvpId": "920839502",
    "eventId": "134391752",
    "response": "no",
    "rsvpAt": 1376349640000,
    "guests": 0
  },
  {
    "_id": "521abaa7aba9f11536b3a327",
    "groupId": "3250422",
    "memberId": 13357753,
    "name": "Raffael Marty",
    "joined": 1344995054000,
    "link": "http://www.meetup.com/members/13357753",
    "lon": -122.41,
    "lat": 37.77,
    "state": "CA",
    "city": "San Francisco",
    "avatar": "http://photos2.meetupstatic.com/photos/member/2/8/e/3/thumb_11230467.jpeg",
    "rsvpId": "920817032",
    "eventId": "134391752",
    "response": "yes",
    "rsvpAt": 1376348689000,
    "guests": 0
  },
  {
    "_id": "521abaa7aba9f11536b3a328",
    "groupId": "3250422",
    "memberId": 13692880,
    "name": "Serena Wales",
    "joined": 1368126430000,
    "link": "http://www.meetup.com/members/13692880",
    "lon": -122.44,
    "lat": 37.76,
    "state": "CA",
    "city": "San Francisco",
    "avatar": "http://photos2.meetupstatic.com/photos/member/c/f/2/8/thumb_58373032.jpeg",
    "rsvpId": "922103342",
    "eventId": "134391752",
    "response": "yes",
    "rsvpAt": 1376429112000,
    "guests": 0
  },
  {
    "_id": "521abaa7aba9f11536b3a329",
    "groupId": "3250422",
    "memberId": 13885884,
    "name": "Kyle Hailey",
    "joined": 1336170661000,
    "link": "http://www.meetup.com/members/13885884",
    "lon": -122.32,
    "lat": 37.57,
    "state": "CA",
    "city": "San Mateo",
    "avatar": "http://photos1.meetupstatic.com/photos/member/3/d/b/3/thumb_11895795.jpeg",
    "rsvpId": "920815942",
    "eventId": "134391752",
    "response": "yes",
    "rsvpAt": 1376348638000,
    "guests": 0
  },
  {
    "_id": "521abaa7aba9f11536b3a32a",
    "groupId": "3250422",
    "memberId": 13903143,
    "name": "Miles McCrocklin",
    "joined": 1330729373000,
    "link": "http://www.meetup.com/members/13903143",
    "lon": -122.42,
    "lat": 37.78,
    "state": "CA",
    "city": "San Francisco",
    "avatar": "http://photos4.meetupstatic.com/photos/member/9/6/3/4/thumb_104378452.jpeg",
    "rsvpId": "920817152",
    "eventId": "134391752",
    "response": "yes",
    "rsvpAt": 1376348699000,
    "guests": 0
  },
  {
    "_id": "521abaa7aba9f11536b3a32b",
    "groupId": "3250422",
    "memberId": 13921537,
    "name": "Andrew Ballantyne",
    "joined": 1367618410000,
    "link": "http://www.meetup.com/members/13921537",
    "lon": -122.46,
    "lat": 37.74,
    "state": "CA",
    "city": "San Francisco",
    "avatar": "http://photos3.meetupstatic.com/photos/member/d/a/e/a/thumb_72236042.jpeg",
    "rsvpId": "924888222",
    "eventId": "134391752",
    "response": "yes",
    "rsvpAt": 1376604831000,
    "guests": 0
  },
  {
    "_id": "521abaa7aba9f11536b3a32c",
    "groupId": "3250422",
    "memberId": 13921639,
    "name": "Alexander Berezovsky",
    "joined": 1376607306000,
    "link": "http://www.meetup.com/members/13921639",
    "lon": -122.49,
    "lat": 37.74,
    "state": "CA",
    "city": "San Francisco",
    "avatar": "http://photos3.meetupstatic.com/photos/member/c/1/3/6/thumb_30829462.jpeg",
    "rsvpId": "924935372",
    "eventId": "134391752",
    "response": "yes",
    "rsvpAt": 1376607307000,
    "guests": 0
  },
  {
    "_id": "521abaa7aba9f11536b3a32d",
    "groupId": "3250422",
    "memberId": 14003768,
    "name": "Toshiro Ken Sugihara",
    "joined": 1376278924000,
    "link": "http://www.meetup.com/members/14003768",
    "lon": -122.41,
    "lat": 37.79,
    "state": "CA",
    "city": "San Francisco",
    "avatar": "http://photos2.meetupstatic.com/photos/member/a/c/2/8/thumb_103544072.jpeg",
    "rsvpId": "920853312",
    "eventId": "134391752",
    "response": "no",
    "rsvpAt": 1376350307000,
    "guests": 0
  },
  {
    "_id": "521abaa7aba9f11536b3a32e",
    "groupId": "3250422",
    "memberId": 14050774,
    "name": "Joe Zhou",
    "joined": 1332741614000,
    "link": "http://www.meetup.com/members/14050774",
    "lon": -122.44,
    "lat": 37.69,
    "state": "CA",
    "city": "Daly City",
    "avatar": "http://photos3.meetupstatic.com/photos/member/f/f/c/thumb_127204092.jpeg",
    "rsvpId": "923233672",
    "eventId": "134391752",
    "response": "yes",
    "rsvpAt": 1376503425000,
    "guests": 0
  },
  {
    "_id": "521abaa7aba9f11536b3a32f",
    "groupId": "3250422",
    "memberId": 14057484,
    "name": "Kelly Miyashiro",
    "joined": 1360043426000,
    "link": "http://www.meetup.com/members/14057484",
    "lon": -122.4,
    "lat": 37.79,
    "state": "CA",
    "city": "San Francisco",
    "avatar": "http://photos3.meetupstatic.com/photos/member/7/1/e/a/thumb_39569162.jpeg",
    "rsvpId": "920996092",
    "eventId": "134391752",
    "response": "yes",
    "rsvpAt": 1376356979000,
    "guests": 0
  },
  {
    "_id": "521abaa7aba9f11536b3a330",
    "groupId": "3250422",
    "memberId": 14101550,
    "name": "young",
    "joined": 1338333941000,
    "link": "http://www.meetup.com/members/14101550",
    "lon": -122.41,
    "lat": 37.77,
    "state": "CA",
    "city": "San Francisco",
    "avatar": "http://photos3.meetupstatic.com/photos/member/4/3/d/1/thumb_12857361.jpeg",
    "rsvpId": "920887322",
    "eventId": "134391752",
    "response": "yes",
    "rsvpAt": 1376351877000,
    "guests": 0
  },
  {
    "_id": "521abaa7aba9f11536b3a331",
    "groupId": "3250422",
    "memberId": 14267760,
    "name": "Ri Liu",
    "joined": 1371353477000,
    "link": "http://www.meetup.com/members/14267760",
    "lon": -122.44,
    "lat": 37.77,
    "state": "CA",
    "city": "San Francisco",
    "avatar": "http://photos4.meetupstatic.com/photos/member/3/b/1/c/thumb_108075132.jpeg",
    "rsvpId": "920814002",
    "eventId": "134391752",
    "response": "no",
    "rsvpAt": 1376348553000,
    "guests": 0
  },
  {
    "_id": "521abaa7aba9f11536b3a332",
    "groupId": "3250422",
    "memberId": 14423688,
    "name": "D D",
    "joined": 1336874052000,
    "link": "http://www.meetup.com/members/14423688",
    "lon": -122.41,
    "lat": 37.77,
    "state": "CA",
    "city": "San Francisco",
    "avatar": "http://photos1.meetupstatic.com/photos/member/1/5/3/8/thumb_97265432.jpeg",
    "rsvpId": "924007812",
    "eventId": "134391752",
    "response": "yes",
    "rsvpAt": 1376544024000,
    "guests": 0
  },
  {
    "_id": "521abaa7aba9f11536b3a333",
    "groupId": "3250422",
    "memberId": 14459516,
    "name": "Dennis Woo",
    "joined": 1367967045000,
    "link": "http://www.meetup.com/members/14459516",
    "lon": -122.42,
    "lat": 37.78,
    "state": "CA",
    "city": "San Francisco",
    "avatar": "http://photos2.meetupstatic.com/photos/member/5/d/0/e/thumb_91343822.jpeg",
    "rsvpId": "926355252",
    "eventId": "134391752",
    "response": "yes",
    "rsvpAt": 1376698437000,
    "guests": 0
  },
  {
    "_id": "521abaa7aba9f11536b3a334",
    "groupId": "3250422",
    "memberId": 14493186,
    "name": "Phil Vander Broek",
    "joined": 1363366290000,
    "link": "http://www.meetup.com/members/14493186",
    "lon": -122.44,
    "lat": 37.77,
    "state": "CA",
    "city": "San Francisco",
    "avatar": "http://photos4.meetupstatic.com/photos/member/4/d/f/a/thumb_104119962.jpeg",
    "rsvpId": "920878722",
    "eventId": "134391752",
    "response": "yes",
    "rsvpAt": 1376351481000,
    "guests": 0
  },
  {
    "_id": "521abaa7aba9f11536b3a335",
    "groupId": "3250422",
    "memberId": 15849121,
    "name": "Lior",
    "joined": 1328935881000,
    "link": "http://www.meetup.com/members/15849121",
    "lon": -122.44,
    "lat": 37.8,
    "state": "CA",
    "city": "San Francisco",
    "avatar": "http://photos1.meetupstatic.com/photos/member/d/9/6/d/thumb_16675661.jpeg",
    "rsvpId": "920815092",
    "eventId": "134391752",
    "response": "yes",
    "rsvpAt": 1376348602000,
    "guests": 0
  },
  {
    "_id": "521abaa7aba9f11536b3a336",
    "groupId": "3250422",
    "memberId": 17939792,
    "name": "Adam Leventhal",
    "joined": 1329341579000,
    "link": "http://www.meetup.com/members/17939792",
    "lon": -122.4,
    "lat": 37.79,
    "state": "CA",
    "city": "San Francisco",
    "avatar": "http://photos4.meetupstatic.com/photos/member/8/9/3/2/thumb_57155122.jpeg",
    "rsvpId": "920835352",
    "eventId": "134391752",
    "response": "no",
    "rsvpAt": 1376349461000,
    "guests": 0
  },
  {
    "_id": "521abaa7aba9f11536b3a337",
    "groupId": "3250422",
    "memberId": 18493421,
    "name": "Drew Skau",
    "joined": 1339179938000,
    "link": "http://www.meetup.com/members/18493421",
    "lon": -122.41,
    "lat": 37.77,
    "state": "CA",
    "city": "San Francisco",
    "avatar": "http://photos1.meetupstatic.com/photos/member/7/4/5/6/thumb_69869782.jpeg",
    "rsvpId": "932773252",
    "eventId": "134391752",
    "response": "no",
    "rsvpAt": 1377122197000,
    "guests": 0
  },
  {
    "_id": "521abaa7aba9f11536b3a338",
    "groupId": "3250422",
    "memberId": 19767831,
    "name": "Deron Aucoin",
    "joined": 1361382191000,
    "link": "http://www.meetup.com/members/19767831",
    "lon": -122.42,
    "lat": 37.79,
    "state": "CA",
    "city": "San Francisco",
    "avatar": "http://photos1.meetupstatic.com/photos/member/1/7/e/a/thumb_99066122.jpeg",
    "rsvpId": "932607742",
    "eventId": "134391752",
    "response": "no",
    "rsvpAt": 1377114630000,
    "guests": 0
  },
  {
    "_id": "521abaa7aba9f11536b3a339",
    "groupId": "3250422",
    "memberId": 19811571,
    "name": "Robert",
    "joined": 1368138450000,
    "link": "http://www.meetup.com/members/19811571",
    "lon": -122.44,
    "lat": 37.72,
    "state": "CA",
    "city": "San Francisco",
    "avatar": "http://photos1.meetupstatic.com/photos/member/8/f/d/6/thumb_71436822.jpeg",
    "rsvpId": "931444902",
    "eventId": "134391752",
    "response": "waitlist",
    "rsvpAt": 1377039935000,
    "guests": 0
  },
  {
    "_id": "521abaa7aba9f11536b3a33a",
    "groupId": "3250422",
    "memberId": 20430841,
    "name": "frank",
    "joined": 1361901581000,
    "link": "http://www.meetup.com/members/20430841",
    "lon": -122.42,
    "lat": 37.75,
    "state": "CA",
    "city": "San Francisco",
    "avatar": "http://photos2.meetupstatic.com/photos/member/2/b/6/8/thumb_33071112.jpeg",
    "rsvpId": "926641332",
    "eventId": "134391752",
    "response": "waitlist",
    "rsvpAt": 1376720098000,
    "guests": 0
  },
  {
    "_id": "521abaa7aba9f11536b3a33b",
    "groupId": "3250422",
    "memberId": 20782941,
    "name": "Sara Lin",
    "joined": 1375148118000,
    "link": "http://www.meetup.com/members/20782941",
    "lon": -122.41,
    "lat": 37.77,
    "state": "CA",
    "city": "San Francisco",
    "avatar": "http://photos1.meetupstatic.com/photos/member/2/f/6/e/thumb_27192142.jpeg",
    "rsvpId": "920814692",
    "eventId": "134391752",
    "response": "yes",
    "rsvpAt": 1376348581000,
    "guests": 0
  },
  {
    "_id": "521abaa7aba9f11536b3a33c",
    "groupId": "3250422",
    "memberId": 21685841,
    "name": "Shirley Xueyang Wu",
    "joined": 1347482418000,
    "link": "http://www.meetup.com/members/21685841",
    "lon": -122.4,
    "lat": 37.79,
    "state": "CA",
    "city": "San Francisco",
    "avatar": "http://photos2.meetupstatic.com/photos/member/9/9/f/e/thumb_64359422.jpeg",
    "rsvpId": "920821972",
    "eventId": "134391752",
    "response": "yes",
    "rsvpAt": 1376348908000,
    "guests": 0
  },
  {
    "_id": "521abaa7aba9f11536b3a33d",
    "groupId": "3250422",
    "memberId": 23035081,
    "name": "Nick Sardo",
    "joined": 1368685479000,
    "link": "http://www.meetup.com/members/23035081",
    "lon": -122.4,
    "lat": 37.77,
    "state": "CA",
    "city": "San Francisco",
    "avatar": "http://photos2.meetupstatic.com/photos/member/2/9/6/a/thumb_51790602.jpeg",
    "rsvpId": "920890632",
    "eventId": "134391752",
    "response": "yes",
    "rsvpAt": 1376352025000,
    "guests": 0
  },
  {
    "_id": "521abaa7aba9f11536b3a33e",
    "groupId": "3250422",
    "memberId": 23769521,
    "name": "Jorge Cuadra",
    "joined": 1376447943000,
    "link": "http://www.meetup.com/members/23769521",
    "lon": -122.07,
    "lat": 37.39,
    "state": "CA",
    "city": "Mountain View",
    "avatar": "http://photos1.meetupstatic.com/photos/member/b/7/4/a/thumb_60886922.jpeg",
    "rsvpId": "922482072",
    "eventId": "134391752",
    "response": "yes",
    "rsvpAt": 1376447944000,
    "guests": 0
  },
  {
    "_id": "521abaa7aba9f11536b3a33f",
    "groupId": "3250422",
    "memberId": 25902562,
    "name": "Maggie L.",
    "joined": 1337102742000,
    "link": "http://www.meetup.com/members/25902562",
    "lon": -122.42,
    "lat": 37.78,
    "state": "CA",
    "city": "San Francisco",
    "avatar": "http://photos2.meetupstatic.com/photos/member/8/f/4/0/thumb_31236672.jpeg",
    "rsvpId": "926561212",
    "eventId": "134391752",
    "response": "no",
    "rsvpAt": 1376711646000,
    "guests": 0
  },
  {
    "_id": "521abaa7aba9f11536b3a340",
    "groupId": "3250422",
    "memberId": 26868792,
    "name": "Mouly",
    "joined": 1334245174000,
    "link": "http://www.meetup.com/members/26868792",
    "lon": -122.44,
    "lat": 37.76,
    "state": "CA",
    "city": "San Francisco",
    "avatar": "http://photos3.meetupstatic.com/photos/member/a/9/6/2/thumb_26983362.jpeg",
    "rsvpId": "923150602",
    "eventId": "134391752",
    "response": "no",
    "rsvpAt": 1376499788000,
    "guests": 0
  },
  {
    "_id": "521abaa7aba9f11536b3a341",
    "groupId": "3250422",
    "memberId": 27583142,
    "name": "Victor Powell",
    "joined": 1368158563000,
    "link": "http://www.meetup.com/members/27583142",
    "lon": -122.26,
    "lat": 37.87,
    "state": "CA",
    "city": "Berkeley",
    "avatar": "http://photos2.meetupstatic.com/photos/member/2/8/8/e/thumb_40570382.jpeg",
    "rsvpId": "923126142",
    "eventId": "134391752",
    "response": "yes",
    "rsvpAt": 1376498725000,
    "guests": 0
  },
  {
    "_id": "521abaa7aba9f11536b3a342",
    "groupId": "3250422",
    "memberId": 28105732,
    "name": "Eric Garrett",
    "joined": 1346370182000,
    "link": "http://www.meetup.com/members/28105732",
    "lon": -122.4,
    "lat": 37.79,
    "state": "CA",
    "city": "San Francisco",
    "avatar": "http://photos1.meetupstatic.com/photos/member/d/b/d/0/thumb_124016272.jpeg",
    "rsvpId": "920879922",
    "eventId": "134391752",
    "response": "yes",
    "rsvpAt": 1376351527000,
    "guests": 0
  },
  {
    "_id": "521abaa7aba9f11536b3a343",
    "groupId": "3250422",
    "memberId": 29653102,
    "name": "Edwin Chiu",
    "joined": 1330164869000,
    "link": "http://www.meetup.com/members/29653102",
    "lon": -122.41,
    "lat": 37.8,
    "state": "CA",
    "city": "San Francisco",
    "avatar": "http://photos1.meetupstatic.com/photos/member/4/3/d/2/thumb_31577362.jpeg",
    "rsvpId": "920846222",
    "eventId": "134391752",
    "response": "no",
    "rsvpAt": 1376349965000,
    "guests": 0
  },
  {
    "_id": "521abaa7aba9f11536b3a344",
    "groupId": "3250422",
    "memberId": 30105482,
    "name": "Ed Rooth",
    "joined": 1350429097000,
    "link": "http://www.meetup.com/members/30105482",
    "lon": -122.41,
    "lat": 37.79,
    "state": "CA",
    "city": "San Francisco",
    "avatar": "http://photos2.meetupstatic.com/photos/member/1/f/e/2/thumb_30008162.jpeg",
    "rsvpId": "920808312",
    "eventId": "134391752",
    "response": "yes",
    "rsvpAt": 1376348277000,
    "guests": 0
  },
  {
    "_id": "521abaa7aba9f11536b3a345",
    "groupId": "3250422",
    "memberId": 30484062,
    "name": "Niels Johnson",
    "joined": 1332091703000,
    "link": "http://www.meetup.com/members/30484062",
    "lon": -122.41,
    "lat": 37.79,
    "state": "CA",
    "city": "San Francisco",
    "avatar": "http://photos4.meetupstatic.com/photos/member/3/8/4/2/thumb_34394402.jpeg",
    "rsvpId": "920944632",
    "eventId": "134391752",
    "response": "yes",
    "rsvpAt": 1376354531000,
    "guests": 0
  },
  {
    "_id": "521abaa7aba9f11536b3a346",
    "groupId": "3250422",
    "memberId": 30715372,
    "name": "Stoney Vintson",
    "joined": 1368146875000,
    "link": "http://www.meetup.com/members/30715372",
    "lon": -122.02,
    "lat": 37.38,
    "state": "CA",
    "city": "Sunnyvale",
    "avatar": "http://photos4.meetupstatic.com/photos/member/8/6/9/e/thumb_30814462.jpeg",
    "rsvpId": "920825432",
    "eventId": "134391752",
    "response": "no",
    "rsvpAt": 1376349028000,
    "guests": 0
  },
  {
    "_id": "521abaa7aba9f11536b3a347",
    "groupId": "3250422",
    "memberId": 30817542,
    "name": "Eddie Elliott",
    "joined": 1344570770000,
    "link": "http://www.meetup.com/members/30817542",
    "lon": -122.41,
    "lat": 37.77,
    "state": "CA",
    "city": "San Francisco",
    "avatar": "http://photos4.meetupstatic.com/photos/member/b/2/4/0/thumb_30945632.jpeg",
    "rsvpId": "921130662",
    "eventId": "134391752",
    "response": "yes",
    "rsvpAt": 1376363590000,
    "guests": 0
  },
  {
    "_id": "521abaa7aba9f11536b3a348",
    "groupId": "3250422",
    "memberId": 33035582,
    "name": "Sebastian Porst",
    "joined": 1350880107000,
    "link": "http://www.meetup.com/members/33035582",
    "lon": -122.41,
    "lat": 37.77,
    "state": "CA",
    "city": "San Francisco",
    "avatar": "http://photos2.meetupstatic.com/photos/member/3/3/6/0/thumb_50773152.jpeg",
    "rsvpId": "920845882",
    "eventId": "134391752",
    "response": "yes",
    "rsvpAt": 1376349943000,
    "guests": 1
  },
  {
    "_id": "521abaa7aba9f11536b3a349",
    "groupId": "3250422",
    "memberId": 33990742,
    "name": "Richard Elling",
    "joined": 1366830939000,
    "link": "http://www.meetup.com/members/33990742",
    "lon": -117.2,
    "lat": 32.89,
    "state": "CA",
    "city": "San Diego",
    "avatar": "http://photos1.meetupstatic.com/photos/member/6/7/7/2/thumb_43826482.jpeg",
    "rsvpId": "932811322",
    "eventId": "134391752",
    "response": "waitlist",
    "rsvpAt": 1377124195000,
    "guests": 0
  },
  {
    "_id": "521abaa7aba9f11536b3a34a",
    "groupId": "3250422",
    "memberId": 34745592,
    "name": "Erik Hazzard",
    "joined": 1329158175000,
    "link": "http://www.meetup.com/members/34745592",
    "lon": -122.28,
    "lat": 37.87,
    "state": "CA",
    "city": "Berkeley",
    "avatar": "http://photos2.meetupstatic.com/photos/member/d/2/3/4/thumb_84233812.jpeg",
    "rsvpId": "920911932",
    "eventId": "134391752",
    "response": "yes",
    "rsvpAt": 1376352979000,
    "guests": 0
  },
  {
    "_id": "521abaa7aba9f11536b3a34b",
    "groupId": "3250422",
    "memberId": 35814282,
    "name": "Sara Quigley",
    "joined": 1360006631000,
    "link": "http://www.meetup.com/members/35814282",
    "lon": -122.4,
    "lat": 37.79,
    "state": "CA",
    "city": "San Francisco",
    "avatar": "http://photos2.meetupstatic.com/photos/member/c/6/2/2/thumb_38030722.jpeg",
    "rsvpId": "920885722",
    "eventId": "134391752",
    "response": "yes",
    "rsvpAt": 1376351804000,
    "guests": 0
  },
  {
    "_id": "521abaa7aba9f11536b3a34c",
    "groupId": "3250422",
    "memberId": 35819242,
    "name": "Mark Everett",
    "joined": 1344320301000,
    "link": "http://www.meetup.com/members/35819242",
    "lon": -122.42,
    "lat": 37.78,
    "state": "CA",
    "city": "San Francisco",
    "avatar": "http://photos3.meetupstatic.com/photos/member/1/8/9/4/thumb_66426292.jpeg",
    "rsvpId": "920861102",
    "eventId": "134391752",
    "response": "yes",
    "rsvpAt": 1376350662000,
    "guests": 0
  },
  {
    "_id": "521abaa7aba9f11536b3a34d",
    "groupId": "3250422",
    "memberId": 35829162,
    "name": "Jï¿½rï¿½me Cukier",
    "joined": 1359740960000,
    "link": "http://www.meetup.com/members/35829162",
    "lon": 2.34,
    "lat": 48.86,
    "state": null,
    "city": "Paris",
    "avatar": "http://photos4.meetupstatic.com/photos/member/c/5/6/e/thumb_119210542.jpeg",
    "rsvpId": "920828682",
    "eventId": "134391752",
    "response": "no",
    "rsvpAt": 1376349159000,
    "guests": 0
  },
  {
    "_id": "521abaa7aba9f11536b3a34e",
    "groupId": "3250422",
    "memberId": 35880692,
    "name": "John Beresniewicz",
    "joined": 1328910629000,
    "link": "http://www.meetup.com/members/35880692",
    "lon": -122.41,
    "lat": 37.77,
    "state": "CA",
    "city": "San Francisco",
    "avatar": "http://photos2.meetupstatic.com/photos/member/8/0/a/4/thumb_41132932.jpeg",
    "rsvpId": "920857922",
    "eventId": "134391752",
    "response": "no",
    "rsvpAt": 1376350512000,
    "guests": 0
  },
  {
    "_id": "521abaa7aba9f11536b3a34f",
    "groupId": "3250422",
    "memberId": 35882612,
    "name": "Amruta Chitnis",
    "joined": 1367516237000,
    "link": "http://www.meetup.com/members/35882612",
    "lon": -122.08,
    "lat": 37.38,
    "state": "CA",
    "city": "Mountain View",
    "avatar": "http://photos4.meetupstatic.com/photos/member/6/8/8/0/thumb_38126752.jpeg",
    "rsvpId": "921811592",
    "eventId": "134391752",
    "response": "yes",
    "rsvpAt": 1376415917000,
    "guests": 0
  },
  {
    "_id": "521abaa7aba9f11536b3a350",
    "groupId": "3250422",
    "memberId": 35975432,
    "name": "Russ Thompson",
    "joined": 1363322180000,
    "link": "http://www.meetup.com/members/35975432",
    "lon": -122.42,
    "lat": 37.75,
    "state": "CA",
    "city": "San Francisco",
    "avatar": "http://photos4.meetupstatic.com/photos/member/2/7/5/8/thumb_106570072.jpeg",
    "rsvpId": "920906992",
    "eventId": "134391752",
    "response": "no",
    "rsvpAt": 1376352769000,
    "guests": 0
  },
  {
    "_id": "521abaa7aba9f11536b3a351",
    "groupId": "3250422",
    "memberId": 36299082,
    "name": "Sasha Ratkovic",
    "joined": 1371190629000,
    "link": "http://www.meetup.com/members/36299082",
    "lon": -121.98,
    "lat": 37.35,
    "state": "CA",
    "city": "Santa Clara",
    "rsvpId": "920973482",
    "eventId": "134391752",
    "response": "yes",
    "rsvpAt": 1376355907000,
    "guests": 0
  },
  {
    "_id": "521abaa7aba9f11536b3a352",
    "groupId": "3250422",
    "memberId": 36401112,
    "name": "Margit Zwemer",
    "joined": 1332348166000,
    "link": "http://www.meetup.com/members/36401112",
    "lon": -122.4,
    "lat": 37.77,
    "state": "CA",
    "city": "San Francisco",
    "avatar": "http://photos2.meetupstatic.com/photos/member/d/4/5/0/thumb_41154352.jpeg",
    "rsvpId": "921627922",
    "eventId": "134391752",
    "response": "yes",
    "rsvpAt": 1376407171000,
    "guests": 0
  },
  {
    "_id": "521abaa7aba9f11536b3a353",
    "groupId": "3250422",
    "memberId": 37030652,
    "name": "Michael Peltzer",
    "joined": 1371845594000,
    "link": "http://www.meetup.com/members/37030652",
    "lon": -122.06,
    "lat": 36.99,
    "state": "CA",
    "city": "Santa Cruz",
    "avatar": "http://photos3.meetupstatic.com/photos/member/6/f/9/2/thumb_39748562.jpeg",
    "rsvpId": "920838062",
    "eventId": "134391752",
    "response": "no",
    "rsvpAt": 1376349577000,
    "guests": 0
  },
  {
    "_id": "521abaa7aba9f11536b3a354",
    "groupId": "3250422",
    "memberId": 37704862,
    "name": "Weidong Yang",
    "joined": 1361610890000,
    "link": "http://www.meetup.com/members/37704862",
    "lon": -122.28,
    "lat": 37.87,
    "state": "CA",
    "city": "Berkeley",
    "avatar": "http://photos1.meetupstatic.com/photos/member/7/a/b/e/thumb_92791422.jpeg",
    "rsvpId": "921823912",
    "eventId": "134391752",
    "response": "no",
    "rsvpAt": 1376416527000,
    "guests": 0
  },
  {
    "_id": "521abaa7aba9f11536b3a355",
    "groupId": "3250422",
    "memberId": 37823712,
    "name": "Fei Wang",
    "joined": 1366007348000,
    "link": "http://www.meetup.com/members/37823712",
    "lon": -122.46,
    "lat": 37.78,
    "state": "CA",
    "city": "San Francisco",
    "avatar": "http://photos2.meetupstatic.com/photos/member/8/0/9/a/thumb_49592922.jpeg",
    "rsvpId": "926621452",
    "eventId": "134391752",
    "response": "waitlist",
    "rsvpAt": 1376717612000,
    "guests": 0
  },
  {
    "_id": "521abaa7aba9f11536b3a356",
    "groupId": "3250422",
    "memberId": 41930522,
    "name": "dave hwang",
    "joined": 1361542212000,
    "link": "http://www.meetup.com/members/41930522",
    "lon": -122.41,
    "lat": 37.8,
    "state": "CA",
    "city": "San Francisco",
    "avatar": "http://photos4.meetupstatic.com/photos/member/a/6/3/8/thumb_99462552.jpeg",
    "rsvpId": "923751992",
    "eventId": "134391752",
    "response": "no",
    "rsvpAt": 1376529612000,
    "guests": 0
  },
  {
    "_id": "521abaa7aba9f11536b3a357",
    "groupId": "3250422",
    "memberId": 42057962,
    "name": "Limin Shen",
    "joined": 1372743432000,
    "link": "http://www.meetup.com/members/42057962",
    "lon": -122.4,
    "lat": 37.77,
    "state": "CA",
    "city": "San Francisco",
    "avatar": "http://photos4.meetupstatic.com/photos/member/1/7/7/c/thumb_116706012.jpeg",
    "rsvpId": "920874092",
    "eventId": "134391752",
    "response": "no",
    "rsvpAt": 1376351266000,
    "guests": 0
  },
  {
    "_id": "521abaa7aba9f11536b3a358",
    "groupId": "3250422",
    "memberId": 43453012,
    "name": "Sean McCullough",
    "joined": 1333409898000,
    "link": "http://www.meetup.com/members/43453012",
    "lon": -122.4,
    "lat": 37.79,
    "state": "CA",
    "city": "San Francisco",
    "avatar": "http://photos4.meetupstatic.com/photos/member/3/a/5/e/thumb_48494942.jpeg",
    "rsvpId": "920881432",
    "eventId": "134391752",
    "response": "yes",
    "rsvpAt": 1376351592000,
    "guests": 0
  },
  {
    "_id": "521abaa7aba9f11536b3a359",
    "groupId": "3250422",
    "memberId": 44205342,
    "name": "Seemant K",
    "joined": 1361348750000,
    "link": "http://www.meetup.com/members/44205342",
    "lon": -122.42,
    "lat": 37.75,
    "state": "CA",
    "city": "San Francisco",
    "avatar": "http://photos4.meetupstatic.com/photos/member/2/9/e/2/thumb_49510722.jpeg",
    "rsvpId": "932699472",
    "eventId": "134391752",
    "response": "waitlist",
    "rsvpAt": 1377118704000,
    "guests": 0
  },
  {
    "_id": "521abaa7aba9f11536b3a35a",
    "groupId": "3250422",
    "memberId": 44503072,
    "name": "Sumit",
    "joined": 1367788668000,
    "link": "http://www.meetup.com/members/44503072",
    "lon": -121.88,
    "lat": 37.67,
    "state": "CA",
    "city": "Pleasanton",
    "avatar": "http://photos1.meetupstatic.com/photos/member/c/8/b/6/thumb_115491382.jpeg",
    "rsvpId": "920816972",
    "eventId": "134391752",
    "response": "yes",
    "rsvpAt": 1376348686000,
    "guests": 0
  },
  {
    "_id": "521abaa7aba9f11536b3a35b",
    "groupId": "3250422",
    "memberId": 44861662,
    "name": "sam mussell",
    "joined": 1368160347000,
    "link": "http://www.meetup.com/members/44861662",
    "lon": -122.07,
    "lat": 37.39,
    "state": "CA",
    "city": "Mountain View",
    "avatar": "http://photos1.meetupstatic.com/photos/member/6/0/c/4/thumb_50364772.jpeg",
    "rsvpId": "920882042",
    "eventId": "134391752",
    "response": "yes",
    "rsvpAt": 1376351621000,
    "guests": 0
  },
  {
    "_id": "521abaa7aba9f11536b3a35c",
    "groupId": "3250422",
    "memberId": 45609472,
    "name": "Evan Zamir",
    "joined": 1336504570000,
    "link": "http://www.meetup.com/members/45609472",
    "lon": -122.3,
    "lat": 37.51,
    "state": "CA",
    "city": "Belmont",
    "avatar": "http://photos1.meetupstatic.com/photos/member/2/c/6/2/thumb_51311362.jpeg",
    "rsvpId": "920811982",
    "eventId": "134391752",
    "response": "no",
    "rsvpAt": 1376348449000,
    "guests": 0
  },
  {
    "_id": "521abaa7aba9f11536b3a35d",
    "groupId": "3250422",
    "memberId": 45987542,
    "name": "Ryan Herring",
    "joined": 1335488498000,
    "link": "http://www.meetup.com/members/45987542",
    "lon": -122.42,
    "lat": 37.79,
    "state": "CA",
    "city": "San Francisco",
    "avatar": "http://photos2.meetupstatic.com/photos/member/e/8/9/6/thumb_51779542.jpeg",
    "rsvpId": "920880622",
    "eventId": "134391752",
    "response": "no",
    "rsvpAt": 1376351555000,
    "guests": 0
  },
  {
    "_id": "521abaa7aba9f11536b3a35e",
    "groupId": "3250422",
    "memberId": 47033622,
    "name": "Matthew Ginnard",
    "joined": 1370361881000,
    "link": "http://www.meetup.com/members/47033622",
    "lon": -122.42,
    "lat": 37.78,
    "state": "CA",
    "city": "San Francisco",
    "avatar": "http://photos1.meetupstatic.com/photos/member/8/3/c/e/thumb_53133742.jpeg",
    "rsvpId": "920814112",
    "eventId": "134391752",
    "response": "yes",
    "rsvpAt": 1376348558000,
    "guests": 1
  },
  {
    "_id": "521abaa7aba9f11536b3a35f",
    "groupId": "3250422",
    "memberId": 47453392,
    "name": "John DiMattia",
    "joined": 1361572320000,
    "link": "http://www.meetup.com/members/47453392",
    "lon": -122.44,
    "lat": 37.78,
    "state": "CA",
    "city": "San Francisco",
    "avatar": "http://photos4.meetupstatic.com/photos/member/3/5/4/a/thumb_99553642.jpeg",
    "rsvpId": "931539192",
    "eventId": "134391752",
    "response": "waitlist",
    "rsvpAt": 1377044509000,
    "guests": 0
  },
  {
    "_id": "521abaa7aba9f11536b3a360",
    "groupId": "3250422",
    "memberId": 47597552,
    "name": "Kinnard Hockenhull",
    "joined": 1373186806000,
    "link": "http://www.meetup.com/members/47597552",
    "lon": -122.32,
    "lat": 37.57,
    "state": "CA",
    "city": "San Mateo",
    "avatar": "http://photos3.meetupstatic.com/photos/member/8/b/e/e/thumb_85895822.jpeg",
    "rsvpId": "920946242",
    "eventId": "134391752",
    "response": "yes",
    "rsvpAt": 1376354611000,
    "guests": 0
  },
  {
    "_id": "521abaa7aba9f11536b3a361",
    "groupId": "3250422",
    "memberId": 47621942,
    "name": "Don MacLennan",
    "joined": 1351101996000,
    "link": "http://www.meetup.com/members/47621942",
    "lon": -122.03,
    "lat": 37.35,
    "state": "CA",
    "city": "Sunnyvale",
    "avatar": "http://photos4.meetupstatic.com/photos/member/d/d/e/c/thumb_136856812.jpeg",
    "rsvpId": "920990652",
    "eventId": "134391752",
    "response": "yes",
    "rsvpAt": 1376356702000,
    "guests": 0
  },
  {
    "_id": "521abaa7aba9f11536b3a362",
    "groupId": "3250422",
    "memberId": 47913092,
    "name": "Daniel Feusse",
    "joined": 1337045322000,
    "link": "http://www.meetup.com/members/47913092",
    "lon": -122.4,
    "lat": 37.79,
    "state": "CA",
    "city": "San Francisco",
    "avatar": "http://photos3.meetupstatic.com/photos/member/c/1/c/2/thumb_75349602.jpeg",
    "rsvpId": "923736892",
    "eventId": "134391752",
    "response": "yes",
    "rsvpAt": 1376529210000,
    "guests": 0
  },
  {
    "_id": "521abaa7aba9f11536b3a363",
    "groupId": "3250422",
    "memberId": 48086122,
    "name": "John-Henry Scherck",
    "joined": 1376323008000,
    "link": "http://www.meetup.com/members/48086122",
    "lon": -122.42,
    "lat": 37.79,
    "state": "CA",
    "city": "San Francisco",
    "avatar": "http://photos2.meetupstatic.com/photos/member/4/b/1/6/thumb_139279222.jpeg",
    "rsvpId": "922382722",
    "eventId": "134391752",
    "response": "yes",
    "rsvpAt": 1376443099000,
    "guests": 0
  },
  {
    "_id": "521abaa7aba9f11536b3a364",
    "groupId": "3250422",
    "memberId": 49022282,
    "name": "Sam Lina",
    "joined": 1361499936000,
    "link": "http://www.meetup.com/members/49022282",
    "lon": -122.41,
    "lat": 37.8,
    "state": "CA",
    "city": "San Francisco",
    "avatar": "http://photos3.meetupstatic.com/photos/member/5/d/e/thumb_55621502.jpeg",
    "rsvpId": "933892722",
    "eventId": "134391752",
    "response": "waitlist",
    "rsvpAt": 1377196249000,
    "guests": 0
  },
  {
    "_id": "521abaa7aba9f11536b3a365",
    "groupId": "3250422",
    "memberId": 49366862,
    "name": "Dan LaPushin",
    "joined": 1338239096000,
    "link": "http://www.meetup.com/members/49366862",
    "lon": -122.4,
    "lat": 37.79,
    "state": "CA",
    "city": "San Francisco",
    "avatar": "http://photos3.meetupstatic.com/photos/member/b/4/1/6/thumb_56086102.jpeg",
    "rsvpId": "920936872",
    "eventId": "134391752",
    "response": "yes",
    "rsvpAt": 1376354158000,
    "guests": 0
  },
  {
    "_id": "521abaa7aba9f11536b3a366",
    "groupId": "3250422",
    "memberId": 49422032,
    "name": "Jeremy Blalock",
    "joined": 1372715485000,
    "link": "http://www.meetup.com/members/49422032",
    "lon": -122.26,
    "lat": 37.87,
    "state": "CA",
    "city": "Berkeley",
    "avatar": "http://photos3.meetupstatic.com/photos/member/c/b/e/a/thumb_104272202.jpeg",
    "rsvpId": "921908922",
    "eventId": "134391752",
    "response": "yes",
    "rsvpAt": 1376420405000,
    "guests": 0
  },
  {
    "_id": "521abaa7aba9f11536b3a367",
    "groupId": "3250422",
    "memberId": 50783432,
    "name": "Myles Borins",
    "joined": 1353397954000,
    "link": "http://www.meetup.com/members/50783432",
    "lon": -122.16,
    "lat": 37.42,
    "state": "CA",
    "city": "Stanford",
    "avatar": "http://photos4.meetupstatic.com/photos/member/e/0/4/4/thumb_139377412.jpeg",
    "rsvpId": "920811002",
    "eventId": "134391752",
    "response": "no",
    "rsvpAt": 1376348398000,
    "guests": 0
  },
  {
    "_id": "521abaa7aba9f11536b3a368",
    "groupId": "3250422",
    "memberId": 51973962,
    "name": "Stephanie May",
    "joined": 1361856012000,
    "link": "http://www.meetup.com/members/51973962",
    "lon": -122.42,
    "lat": 37.78,
    "state": "CA",
    "city": "San Francisco",
    "avatar": "http://photos4.meetupstatic.com/photos/member/8/b/0/8/thumb_86675592.jpeg",
    "rsvpId": "920854612",
    "eventId": "134391752",
    "response": "yes",
    "rsvpAt": 1376350362000,
    "guests": 0
  },
  {
    "_id": "521abaa7aba9f11536b3a369",
    "groupId": "3250422",
    "memberId": 52517432,
    "name": "Matt Crum",
    "joined": 1376513422000,
    "link": "http://www.meetup.com/members/52517432",
    "lon": -122.27,
    "lat": 37.81,
    "state": "CA",
    "city": "Oakland",
    "avatar": "http://photos1.meetupstatic.com/photos/member/2/3/d/e/thumb_59949182.jpeg",
    "rsvpId": "923460602",
    "eventId": "134391752",
    "response": "no",
    "rsvpAt": 1376513602000,
    "guests": 0
  },
  {
    "_id": "521abaa7aba9f11536b3a36a",
    "groupId": "3250422",
    "memberId": 53617812,
    "name": "William Hockey",
    "joined": 1363715147000,
    "link": "http://www.meetup.com/members/53617812",
    "lon": -122.42,
    "lat": 37.79,
    "state": "CA",
    "city": "San Francisco",
    "avatar": "http://photos3.meetupstatic.com/photos/member/a/5/f/2/thumb_106062482.jpeg",
    "rsvpId": "922703542",
    "eventId": "134391752",
    "response": "yes",
    "rsvpAt": 1376466042000,
    "guests": 0
  },
  {
    "_id": "521abaa7aba9f11536b3a36b",
    "groupId": "3250422",
    "memberId": 53808142,
    "name": "Piotr Migda?",
    "joined": 1374877456000,
    "link": "http://www.meetup.com/members/53808142",
    "lon": -122.4,
    "lat": 37.77,
    "state": "CA",
    "city": "San Francisco",
    "avatar": "http://photos4.meetupstatic.com/photos/member/8/6/b/c/thumb_61474492.jpeg",
    "rsvpId": "932750772",
    "eventId": "134391752",
    "response": "no",
    "rsvpAt": 1377121093000,
    "guests": 0
  },
  {
    "_id": "521abaa7aba9f11536b3a36c",
    "groupId": "3250422",
    "memberId": 53965172,
    "name": "Moon Limb",
    "joined": 1345863899000,
    "link": "http://www.meetup.com/members/53965172",
    "lon": -122.44,
    "lat": 37.76,
    "state": "CA",
    "city": "San Francisco",
    "avatar": "http://photos3.meetupstatic.com/photos/member/9/6/0/c/thumb_81098412.jpeg",
    "rsvpId": "920888062",
    "eventId": "134391752",
    "response": "yes",
    "rsvpAt": 1376351907000,
    "guests": 0
  },
  {
    "_id": "521abaa7aba9f11536b3a36d",
    "groupId": "3250422",
    "memberId": 54453802,
    "name": "Peter Stein",
    "joined": 1369283418000,
    "link": "http://www.meetup.com/members/54453802",
    "lon": -122.41,
    "lat": 37.77,
    "state": "CA",
    "city": "San Francisco",
    "avatar": "http://photos1.meetupstatic.com/photos/member/d/2/2/thumb_85383362.jpeg",
    "rsvpId": "932619732",
    "eventId": "134391752",
    "response": "waitlist",
    "rsvpAt": 1377115164000,
    "guests": 0
  },
  {
    "_id": "521abaa7aba9f11536b3a36e",
    "groupId": "3250422",
    "memberId": 55454932,
    "name": "Jody Edmondson",
    "joined": 1353380587000,
    "link": "http://www.meetup.com/members/55454932",
    "lon": -122.41,
    "lat": 37.77,
    "state": "CA",
    "city": "San Francisco",
    "avatar": "http://photos3.meetupstatic.com/photos/member/9/1/5/c/thumb_63577212.jpeg",
    "rsvpId": "929475052",
    "eventId": "134391752",
    "response": "waitlist",
    "rsvpAt": 1376932534000,
    "guests": 0
  },
  {
    "_id": "521abaa7aba9f11536b3a36f",
    "groupId": "3250422",
    "memberId": 56671832,
    "name": "Joseph Riley",
    "joined": 1372808202000,
    "link": "http://www.meetup.com/members/56671832",
    "lon": -71.05,
    "lat": 42.37,
    "state": "MA",
    "city": "Boston",
    "avatar": "http://photos3.meetupstatic.com/photos/member/9/4/0/4/thumb_90097892.jpeg",
    "rsvpId": "920836042",
    "eventId": "134391752",
    "response": "yes",
    "rsvpAt": 1376349489000,
    "guests": 1
  },
  {
    "_id": "521abaa7aba9f11536b3a370",
    "groupId": "3250422",
    "memberId": 57574322,
    "name": "Vaibhav",
    "joined": 1370038675000,
    "link": "http://www.meetup.com/members/57574322",
    "lon": -117.54,
    "lat": 33.88,
    "state": "CA",
    "city": "Corona",
    "avatar": "http://photos4.meetupstatic.com/photos/member/8/5/4/a/thumb_68614122.jpeg",
    "rsvpId": "921554292",
    "eventId": "134391752",
    "response": "yes",
    "rsvpAt": 1376403369000,
    "guests": 0
  },
  {
    "_id": "521abaa7aba9f11536b3a371",
    "groupId": "3250422",
    "memberId": 57652672,
    "name": "Daniel Duckworth",
    "joined": 1344362867000,
    "link": "http://www.meetup.com/members/57652672",
    "lon": -122.41,
    "lat": 37.77,
    "state": "CA",
    "city": "San Francisco",
    "avatar": "http://photos2.meetupstatic.com/photos/member/2/9/6/0/thumb_66490592.jpeg",
    "rsvpId": "920810612",
    "eventId": "134391752",
    "response": "yes",
    "rsvpAt": 1376348382000,
    "guests": 1
  },
  {
    "_id": "521abaa7aba9f11536b3a372",
    "groupId": "3250422",
    "memberId": 58045182,
    "name": "Jordan Staniscia",
    "joined": 1344637357000,
    "link": "http://www.meetup.com/members/58045182",
    "lon": -122.4,
    "lat": 37.79,
    "state": "CA",
    "city": "San Francisco",
    "avatar": "http://photos3.meetupstatic.com/photos/member/a/d/b/8/thumb_107744472.jpeg",
    "rsvpId": "922133302",
    "eventId": "134391752",
    "response": "yes",
    "rsvpAt": 1376430560000,
    "guests": 0
  },
  {
    "_id": "521abaa7aba9f11536b3a373",
    "groupId": "3250422",
    "memberId": 58956292,
    "name": "Mark",
    "joined": 1361484064000,
    "link": "http://www.meetup.com/members/58956292",
    "lon": -122.4,
    "lat": 37.77,
    "state": "CA",
    "city": "San Francisco",
    "avatar": "http://photos3.meetupstatic.com/photos/member/9/3/1/4/thumb_68197652.jpeg",
    "rsvpId": "920819192",
    "eventId": "134391752",
    "response": "no",
    "rsvpAt": 1376348787000,
    "guests": 0
  },
  {
    "_id": "521abaa7aba9f11536b3a374",
    "groupId": "3250422",
    "memberId": 60118972,
    "name": "Yang Hung",
    "joined": 1366938605000,
    "link": "http://www.meetup.com/members/60118972",
    "lon": -122.13,
    "lat": 37.42,
    "state": "CA",
    "city": "Palo Alto",
    "rsvpId": "920869702",
    "eventId": "134391752",
    "response": "yes",
    "rsvpAt": 1376351064000,
    "guests": 0
  },
  {
    "_id": "521abaa7aba9f11536b3a375",
    "groupId": "3250422",
    "memberId": 60232722,
    "name": "Peter",
    "joined": 1347388293000,
    "link": "http://www.meetup.com/members/60232722",
    "lon": -122.13,
    "lat": 37.42,
    "state": "CA",
    "city": "Palo Alto",
    "avatar": "http://photos1.meetupstatic.com/photos/member/7/1/4/a/thumb_72089002.jpeg",
    "rsvpId": "920832612",
    "eventId": "134391752",
    "response": "no",
    "rsvpAt": 1376349326000,
    "guests": 0
  },
  {
    "_id": "521abaa7aba9f11536b3a376",
    "groupId": "3250422",
    "memberId": 61693762,
    "name": "Ofurhe Igbinedion",
    "joined": 1360188549000,
    "link": "http://www.meetup.com/members/61693762",
    "lon": -122.41,
    "lat": 37.77,
    "state": "CA",
    "city": "San Francisco",
    "avatar": "http://photos2.meetupstatic.com/photos/member/2/3/c/thumb_71700572.jpeg",
    "rsvpId": "920876802",
    "eventId": "134391752",
    "response": "yes",
    "rsvpAt": 1376351391000,
    "guests": 0
  },
  {
    "_id": "521abaa7aba9f11536b3a377",
    "groupId": "3250422",
    "memberId": 65098002,
    "name": "Anthony Datu",
    "joined": 1365442910000,
    "link": "http://www.meetup.com/members/65098002",
    "lon": -122.4,
    "lat": 37.79,
    "state": "CA",
    "city": "San Francisco",
    "avatar": "http://photos2.meetupstatic.com/photos/member/3/2/7/a/thumb_76032922.jpeg",
    "rsvpId": "927969152",
    "eventId": "134391752",
    "response": "waitlist",
    "rsvpAt": 1376843132000,
    "guests": 0
  },
  {
    "_id": "521abaa7aba9f11536b3a378",
    "groupId": "3250422",
    "memberId": 65633912,
    "name": "Edgar",
    "joined": 1368217646000,
    "link": "http://www.meetup.com/members/65633912",
    "lon": -122.4,
    "lat": 37.77,
    "state": "CA",
    "city": "San Francisco",
    "avatar": "http://photos2.meetupstatic.com/photos/member/a/4/a/8/thumb_116682152.jpeg",
    "rsvpId": "920813722",
    "eventId": "134391752",
    "response": "yes",
    "rsvpAt": 1376348540000,
    "guests": 0
  },
  {
    "_id": "521abaa7aba9f11536b3a379",
    "groupId": "3250422",
    "memberId": 66148992,
    "name": "Jay Bech",
    "joined": 1367259131000,
    "link": "http://www.meetup.com/members/66148992",
    "lon": -122.41,
    "lat": 37.77,
    "state": "CA",
    "city": "San Francisco",
    "avatar": "http://photos4.meetupstatic.com/photos/member/1/c/e/0/thumb_77407392.jpeg",
    "rsvpId": "924981592",
    "eventId": "134391752",
    "response": "yes",
    "rsvpAt": 1376609833000,
    "guests": 0
  },
  {
    "_id": "521abaa7aba9f11536b3a37a",
    "groupId": "3250422",
    "memberId": 66649672,
    "name": "Dennis Watson",
    "joined": 1376078933000,
    "link": "http://www.meetup.com/members/66649672",
    "lon": -122.41,
    "lat": 37.79,
    "state": "CA",
    "city": "San Francisco",
    "avatar": "http://photos2.meetupstatic.com/photos/member/9/f/f/8/thumb_78040952.jpeg",
    "rsvpId": "920963182",
    "eventId": "134391752",
    "response": "yes",
    "rsvpAt": 1376355390000,
    "guests": 0
  },
  {
    "_id": "521abaa7aba9f11536b3a37b",
    "groupId": "3250422",
    "memberId": 67861592,
    "name": "@KennethFax",
    "joined": 1362682447000,
    "link": "http://www.meetup.com/members/67861592",
    "lon": -122.4,
    "lat": 37.77,
    "state": "CA",
    "city": "San Francisco",
    "avatar": "http://photos2.meetupstatic.com/photos/member/a/d/c/c/thumb_131144492.jpeg",
    "rsvpId": "920863792",
    "eventId": "134391752",
    "response": "yes",
    "rsvpAt": 1376350784000,
    "guests": 2
  },
  {
    "_id": "521abaa7aba9f11536b3a37c",
    "groupId": "3250422",
    "memberId": 68359342,
    "name": "Ryuta Oshikiri",
    "joined": 1375160742000,
    "link": "http://www.meetup.com/members/68359342",
    "lon": -122.49,
    "lat": 37.78,
    "state": "CA",
    "city": "San Francisco",
    "avatar": "http://photos2.meetupstatic.com/photos/member/a/d/a/e/thumb_141164462.jpeg",
    "rsvpId": "920825962",
    "eventId": "134391752",
    "response": "yes",
    "rsvpAt": 1376349047000,
    "guests": 0
  },
  {
    "_id": "521abaa7aba9f11536b3a37d",
    "groupId": "3250422",
    "memberId": 70211782,
    "name": "josephine",
    "joined": 1375725272000,
    "link": "http://www.meetup.com/members/70211782",
    "lon": -122.42,
    "lat": 37.75,
    "state": "CA",
    "city": "San Francisco",
    "avatar": "http://photos2.meetupstatic.com/photos/member/3/3/3/8/thumb_92473112.jpeg",
    "rsvpId": "921038492",
    "eventId": "134391752",
    "response": "yes",
    "rsvpAt": 1376358966000,
    "guests": 0
  },
  {
    "_id": "521abaa7aba9f11536b3a37e",
    "groupId": "3250422",
    "memberId": 71177662,
    "name": "Edward Mei",
    "joined": 1359962801000,
    "link": "http://www.meetup.com/members/71177662",
    "lon": -122.42,
    "lat": 37.78,
    "state": "CA",
    "city": "San Francisco",
    "avatar": "http://photos2.meetupstatic.com/photos/member/e/0/7/6/thumb_84837462.jpeg",
    "rsvpId": "920927832",
    "eventId": "134391752",
    "response": "yes",
    "rsvpAt": 1376353789000,
    "guests": 0
  },
  {
    "_id": "521abaa7aba9f11536b3a37f",
    "groupId": "3250422",
    "memberId": 71463582,
    "name": "Daniel Lucas",
    "joined": 1377205374000,
    "link": "http://www.meetup.com/members/71463582",
    "lon": -122.46,
    "lat": 37.76,
    "state": "CA",
    "city": "San Francisco",
    "avatar": "http://photos4.meetupstatic.com/photos/member/6/c/8/6/thumb_141507782.jpeg",
    "rsvpId": "934079612",
    "eventId": "134391752",
    "response": "waitlist",
    "rsvpAt": 1377205375000,
    "guests": 0
  },
  {
    "_id": "521abaa7aba9f11536b3a380",
    "groupId": "3250422",
    "memberId": 72885862,
    "name": "Alex",
    "joined": 1357620858000,
    "link": "http://www.meetup.com/members/72885862",
    "lon": -122.41,
    "lat": 37.8,
    "state": "CA",
    "city": "San Francisco",
    "avatar": "http://photos3.meetupstatic.com/photos/member/3/1/1/c/thumb_106572572.jpeg",
    "rsvpId": "933850732",
    "eventId": "134391752",
    "response": "waitlist",
    "rsvpAt": 1377194209000,
    "guests": 1
  },
  {
    "_id": "521abaa7aba9f11536b3a381",
    "groupId": "3250422",
    "memberId": 78095232,
    "name": "Marlee",
    "joined": 1377140391000,
    "link": "http://www.meetup.com/members/78095232",
    "lon": -122.42,
    "lat": 37.79,
    "state": "CA",
    "city": "San Francisco",
    "avatar": "http://photos2.meetupstatic.com/photos/member/4/0/4/e/thumb_140536462.jpeg",
    "rsvpId": "933138012",
    "eventId": "134391752",
    "response": "waitlist",
    "rsvpAt": 1377140473000,
    "guests": 0
  },
  {
    "_id": "521abaa7aba9f11536b3a382",
    "groupId": "3250422",
    "memberId": 81239992,
    "name": "Lewis Lehe",
    "joined": 1361246328000,
    "link": "http://www.meetup.com/members/81239992",
    "lon": -122.4,
    "lat": 37.79,
    "state": "CA",
    "city": "San Francisco",
    "avatar": "http://photos1.meetupstatic.com/photos/member/a/4/c/6/thumb_98742182.jpeg",
    "rsvpId": "923596992",
    "eventId": "134391752",
    "response": "no",
    "rsvpAt": 1376520985000,
    "guests": 0
  },
  {
    "_id": "521abaa7aba9f11536b3a383",
    "groupId": "3250422",
    "memberId": 81661472,
    "name": "Jeff Zerger",
    "joined": 1361489404000,
    "link": "http://www.meetup.com/members/81661472",
    "lon": -122.49,
    "lat": 37.6,
    "state": "CA",
    "city": "Pacifica",
    "avatar": "http://photos2.meetupstatic.com/photos/member/d/4/8/c/thumb_99354412.jpeg",
    "rsvpId": "920823242",
    "eventId": "134391752",
    "response": "no",
    "rsvpAt": 1376348951000,
    "guests": 0
  },
  {
    "_id": "521abaa7aba9f11536b3a384",
    "groupId": "3250422",
    "memberId": 82155442,
    "name": "Brian Chu",
    "joined": 1367871947000,
    "link": "http://www.meetup.com/members/82155442",
    "lon": -122.13,
    "lat": 37.45,
    "state": "CA",
    "city": "Palo Alto",
    "avatar": "http://photos2.meetupstatic.com/photos/member/6/e/c/0/thumb_100108352.jpeg",
    "rsvpId": "921328602",
    "eventId": "134391752",
    "response": "no",
    "rsvpAt": 1376382439000,
    "guests": 0
  },
  {
    "_id": "521abaa7aba9f11536b3a385",
    "groupId": "3250422",
    "memberId": 85162432,
    "name": "Matt Wujek",
    "joined": 1365836366000,
    "link": "http://www.meetup.com/members/85162432",
    "lon": -122.46,
    "lat": 37.78,
    "state": "CA",
    "city": "San Francisco",
    "avatar": "http://photos4.meetupstatic.com/photos/member/4/9/c/2/thumb_119838882.jpeg",
    "rsvpId": "920811282",
    "eventId": "134391752",
    "response": "no",
    "rsvpAt": 1376348410000,
    "guests": 0
  },
  {
    "_id": "521abaa7aba9f11536b3a386",
    "groupId": "3250422",
    "memberId": 86344182,
    "name": "Olena Ivashyna",
    "joined": 1375723129000,
    "link": "http://www.meetup.com/members/86344182",
    "lon": -122.41,
    "lat": 37.79,
    "state": "CA",
    "city": "San Francisco",
    "avatar": "http://photos4.meetupstatic.com/photos/member/c/4/a/6/thumb_138650342.jpeg",
    "rsvpId": "926947722",
    "eventId": "134391752",
    "response": "waitlist",
    "rsvpAt": 1376754557000,
    "guests": 0
  },
  {
    "_id": "521abaa7aba9f11536b3a387",
    "groupId": "3250422",
    "memberId": 87206532,
    "name": "al",
    "joined": 1367375325000,
    "link": "http://www.meetup.com/members/87206532",
    "lon": -122.46,
    "lat": 37.8,
    "state": "CA",
    "city": "San Francisco",
    "avatar": "http://photos3.meetupstatic.com/photos/member/a/c/f/a/thumb_142124282.jpeg",
    "rsvpId": "922604442",
    "eventId": "134391752",
    "response": "yes",
    "rsvpAt": 1376455146000,
    "guests": 0
  },
  {
    "_id": "521abaa7aba9f11536b3a388",
    "groupId": "3250422",
    "memberId": 88847852,
    "name": "Aiyesha",
    "joined": 1365749198000,
    "link": "http://www.meetup.com/members/88847852",
    "lon": -122.4,
    "lat": 37.77,
    "state": "CA",
    "city": "San Francisco",
    "avatar": "http://photos4.meetupstatic.com/photos/member/8/d/6/a/thumb_110076202.jpeg",
    "rsvpId": "922692932",
    "eventId": "134391752",
    "response": "yes",
    "rsvpAt": 1376464303000,
    "guests": 0
  },
  {
    "_id": "521abaa7aba9f11536b3a389",
    "groupId": "3250422",
    "memberId": 92791212,
    "name": "Sang Qiu",
    "joined": 1373678643000,
    "link": "http://www.meetup.com/members/92791212",
    "lon": -122.3,
    "lat": 37.92,
    "state": "CA",
    "city": "El Cerrito",
    "avatar": "http://photos1.meetupstatic.com/photos/member/6/1/3/c/thumb_121584892.jpeg",
    "rsvpId": "921651962",
    "eventId": "134391752",
    "response": "yes",
    "rsvpAt": 1376408417000,
    "guests": 0
  },
  {
    "_id": "521abaa7aba9f11536b3a38a",
    "groupId": "3250422",
    "memberId": 93519582,
    "name": "Elizabeth Chester",
    "joined": 1370797943000,
    "link": "http://www.meetup.com/members/93519582",
    "lon": -122.4,
    "lat": 37.77,
    "state": "CA",
    "city": "San Francisco",
    "rsvpId": "920811072",
    "eventId": "134391752",
    "response": "no",
    "rsvpAt": 1376348400000,
    "guests": 0
  },
  {
    "_id": "521abaa7aba9f11536b3a38b",
    "groupId": "3250422",
    "memberId": 95740862,
    "name": "Heston Liebowitz",
    "joined": 1371101779000,
    "link": "http://www.meetup.com/members/95740862",
    "lon": -122.44,
    "lat": 37.77,
    "state": "CA",
    "city": "San Francisco",
    "avatar": "http://photos2.meetupstatic.com/photos/member/d/7/2/0/thumb_121435072.jpeg",
    "rsvpId": "920892582",
    "eventId": "134391752",
    "response": "yes",
    "rsvpAt": 1376352117000,
    "guests": 0
  },
  {
    "_id": "521abaa7aba9f11536b3a38c",
    "groupId": "3250422",
    "memberId": 96156512,
    "name": "Alexandre Colavin",
    "joined": 1376359255000,
    "link": "http://www.meetup.com/members/96156512",
    "lon": -122.08,
    "lat": 37.38,
    "state": "CA",
    "city": "Mountain View",
    "avatar": "http://photos2.meetupstatic.com/photos/member/7/f/9/6/thumb_139412662.jpeg",
    "rsvpId": "921044462",
    "eventId": "134391752",
    "response": "no",
    "rsvpAt": 1376359256000,
    "guests": 0
  },
  {
    "_id": "521abaa7aba9f11536b3a38d",
    "groupId": "3250422",
    "memberId": 97022502,
    "name": "Walter Roman",
    "joined": 1370722206000,
    "link": "http://www.meetup.com/members/97022502",
    "lon": -122.41,
    "lat": 37.79,
    "state": "CA",
    "city": "San Francisco",
    "avatar": "http://photos3.meetupstatic.com/photos/member/8/d/c/e/thumb_123576302.jpeg",
    "rsvpId": "923534632",
    "eventId": "134391752",
    "response": "yes",
    "rsvpAt": 1376517471000,
    "guests": 0
  },
  {
    "_id": "521abaa7aba9f11536b3a38e",
    "groupId": "3250422",
    "memberId": 100548712,
    "name": "Benedict Lim",
    "joined": 1376349920000,
    "link": "http://www.meetup.com/members/100548712",
    "lon": -122.4,
    "lat": 37.79,
    "state": "CA",
    "city": "San Francisco",
    "avatar": "http://photos2.meetupstatic.com/photos/member/4/c/f/6/thumb_129439702.jpeg",
    "rsvpId": "920845322",
    "eventId": "134391752",
    "response": "yes",
    "rsvpAt": 1376349920000,
    "guests": 0
  },
  {
    "_id": "521abaa7aba9f11536b3a38f",
    "groupId": "3250422",
    "memberId": 103013282,
    "name": "Paul Meola",
    "joined": 1374285325000,
    "link": "http://www.meetup.com/members/103013282",
    "lon": -122.09,
    "lat": 37.41,
    "state": "CA",
    "city": "Mountain View",
    "avatar": "http://photos3.meetupstatic.com/photos/member/1/0/6/0/thumb_133744192.jpeg",
    "rsvpId": "921226442",
    "eventId": "134391752",
    "response": "yes",
    "rsvpAt": 1376369893000,
    "guests": 0
  },
  {
    "_id": "521abaa7aba9f11536b3a390",
    "groupId": "3250422",
    "memberId": 103744512,
    "name": "Conlan O'Leary",
    "joined": 1374718003000,
    "link": "http://www.meetup.com/members/103744512",
    "lon": -122.4,
    "lat": 37.79,
    "state": "CA",
    "city": "San Francisco",
    "rsvpId": "920899392",
    "eventId": "134391752",
    "response": "no",
    "rsvpAt": 1376352447000,
    "guests": 0
  },
  {
    "_id": "521abaa7aba9f11536b3a391",
    "groupId": "3250422",
    "memberId": 106506762,
    "name": "Sophie Dawson",
    "joined": 1376365783000,
    "link": "http://www.meetup.com/members/106506762",
    "lon": -122.41,
    "lat": 37.77,
    "state": "CA",
    "city": "San Francisco",
    "avatar": "http://photos3.meetupstatic.com/photos/member/d/b/3/0/thumb_139436112.jpeg",
    "rsvpId": "921168182",
    "eventId": "134391752",
    "response": "yes",
    "rsvpAt": 1376365784000,
    "guests": 0
  },
  {
    "_id": "521abaa7aba9f11536b3a392",
    "groupId": "3250422",
    "memberId": 107772432,
    "name": "Chris M Balz",
    "joined": 1377117577000,
    "link": "http://www.meetup.com/members/107772432",
    "lon": -122.16,
    "lat": 37.45,
    "state": "CA",
    "city": "Palo Alto",
    "avatar": "http://photos4.meetupstatic.com/photos/member/b/2/e/0/thumb_141285792.jpeg",
    "rsvpId": "932674492",
    "eventId": "134391752",
    "response": "no",
    "rsvpAt": 1377117578000,
    "guests": 0
  }
]
